permit_number,sub_type,work_type,permit_location,date_issued,work_description,status,folder_owner,folder_owner_addrhouse,folder_owner_addrstreet,folder_owner_addrstreettype,folder_owner_addrunittype,folder_owner_addrunit,folder_owner_addrcity,folder_owner_addrprovince,folder_owner_addrpostal,folder_owner_phone,property_owner,property_owner_addrhouse,property_owner_addrstreet,property_owner_addrstreettype,property_owner_addrunittype,property_owner_addrunit,property_owner_addrcity,property_owner_addrprovince,property_owner_addrpostal,property_owner_phone,total_existing_bldg_footage,total_new_add_footage,total_valuation_remodel,total_job_valuation,remodel_repair_footage,number_of_units,usage_category,legal_description,geocoded_address,lat,lng,accuracy,city,postal_code,state,county
1988-001762 BP,C-1000 Commercial Remodel,Remodel,821 Woodward Street               A C00000,11/22/1988,Remodel /Create Temporary Lab,Final,,,,,,,,,,,,,,,,,,,,,,,,15000,,1,,Lot: A Block:   Subdivision: S A C ADDN,821 WOODWARD STREET,30.22444118,-97.75093614,,,,,
1988-001762 EP,C-1000 Commercial Remodel,Remodel,821 Woodward Street               A C00000,11/22/1988,Remodel /Create Temporary Lab,Expired,,,,,,,,,,,,,,,,,,,,,,,,15000,,1,,Lot: A Block:   Subdivision: S A C ADDN,821 WOODWARD STREET,30.22444118,-97.75093614,,,,,
1988-001762 MP,C-1000 Commercial Remodel,Remodel,821 Woodward Street               A C00000,11/22/1988,Remodel /Create Temporary Lab,Expired,,,,,,,,,,,,,,,,,,,,,,,,15000,,1,,Lot: A Block:   Subdivision: S A C ADDN,821 WOODWARD STREET,30.22444118,-97.75093614,,,,,
1988-001762 PP,C-1000 Commercial Remodel,Remodel,821 Woodward Street               A C00000,11/22/1988,Remodel /Create Temporary Lab,Expired,,,,,,,,,,,,,,,,,,,,,,,,15000,,1,,Lot: A Block:   Subdivision: S A C ADDN,821 WOODWARD STREET,30.22444118,-97.75093614,,,,,
1988-001949 BP,C-1000 Commercial Remodel,Remodel,8310 Capital Of Texas Highway Northa  00000,11/22/1988,Finish Out Doyle Wilson Homes Office/#100 A&B,Final,,,,,,,,,,,PROMINENT NORTHPOINT L P % ASPEN GROWTH PROPERTIES INC,,,,,,AUSTIN,TX,78746 1089,,,,,25000,,1,,LOT 1 BLK A PROMINENT POINTE SUBD,8310 CAPITAL OF TEXAS HIGHWAY NORTHA 00000,30.38578719,-97.76852489,,,,,
1988-001949 EP,C-1000 Commercial Remodel,Remodel,8310 Capital Of Texas Highway Northa  00000,11/22/1988,Finish Out Doyle Wilson Homes Office/#100 A&B,Final,,,,,,,,,,,PROMINENT NORTHPOINT L P % ASPEN GROWTH PROPERTIES INC,,,,,,AUSTIN,TX,78746 1089,,,,,25000,,1,,LOT 1 BLK A PROMINENT POINTE SUBD,8310 CAPITAL OF TEXAS HIGHWAY NORTHA 00000,30.38578719,-97.76852489,,,,,
1988-001949 MP,C-1000 Commercial Remodel,Remodel,8310 Capital Of Texas Highway Northa  00000,11/22/1988,Finish Out Doyle Wilson Homes Office/#100 A&B,Final,,,,,,,,,,,PROMINENT NORTHPOINT L P % ASPEN GROWTH PROPERTIES INC,,,,,,AUSTIN,TX,78746 1089,,,,,25000,,1,,LOT 1 BLK A PROMINENT POINTE SUBD,8310 CAPITAL OF TEXAS HIGHWAY NORTHA 00000,30.38578719,-97.76852489,,,,,
1988-001949 PP,C-1000 Commercial Remodel,Remodel,8310 Capital Of Texas Highway Northa  00000,11/22/1988,Finish Out Doyle Wilson Homes Office/#100 A&B,Final,,,,,,,,,,,PROMINENT NORTHPOINT L P % ASPEN GROWTH PROPERTIES INC,,,,,,AUSTIN,TX,78746 1089,,,,,25000,,1,,LOT 1 BLK A PROMINENT POINTE SUBD,8310 CAPITAL OF TEXAS HIGHWAY NORTHA 00000,30.38578719,-97.76852489,,,,,
1988-001952 BP,C-1000 Commercial Remodel,Remodel,5900 Airport Boulevard             A  00000,11/22/1988,Remodel Fanklin Savings,Final,,,,,,,,,,,,,,,,,,,,,,,,20000,,1,,Lot: 1 Block:   Subdivision: BUTTERKRUST SUBDIVISION,5900 AIRPORT BOULEVARD,30.32368087,-97.71590749,,,,,
1988-001952 EP,C-1000 Commercial Remodel,Remodel,5900 Airport Boulevard             A  00000,11/22/1988,Remodel Fanklin Savings,Final,,,,,,,,,,,,,,,,,,,,,,,,20000,,1,,Lot: 1 Block:   Subdivision: BUTTERKRUST SUBDIVISION,5900 AIRPORT BOULEVARD,30.32368087,-97.71590749,,,,,
1988-001952 MP,C-1000 Commercial Remodel,Remodel,5900 Airport Boulevard             A  00000,11/22/1988,Remodel Fanklin Savings,Final,,,,,,,,,,,,,,,,,,,,,,,,20000,,1,,Lot: 1 Block:   Subdivision: BUTTERKRUST SUBDIVISION,5900 AIRPORT BOULEVARD,30.32368087,-97.71590749,,,,,
1988-001957 BP,C-1000 Commercial Remodel,Remodel,5806 Mesa Drive                    A  00300,11/22/1988,Remodel Administrative Office,VOID,,,,,,,,,,,ASEM PROPERTIES LTD % KUCERA COMPANY,,,,,,AUSTIN,TX,78731 3069,,,,,52080,,1,,LOT 1 BLK N NORTHWEST HILLS LAKEVIEW V-B,5806 MESA DRIVE,30.34211813,-97.77127401,,,,,
1988-001957 EP,C-1000 Commercial Remodel,Remodel,5806 Mesa Drive                    A  00300,11/22/1988,Remodel Administrative Office,VOID,,,,,,,,,,,ASEM PROPERTIES LTD % KUCERA COMPANY,,,,,,AUSTIN,TX,78731 3069,,,,,52080,,1,,LOT 1 BLK N NORTHWEST HILLS LAKEVIEW V-B,5806 MESA DRIVE,30.34211813,-97.77127401,,,,,
1988-001957 MP,C-1000 Commercial Remodel,Remodel,5806 Mesa Drive                    A  00300,11/22/1988,Remodel Administrative Office,VOID,,,,,,,,,,,ASEM PROPERTIES LTD % KUCERA COMPANY,,,,,,AUSTIN,TX,78731 3069,,,,,52080,,1,,LOT 1 BLK N NORTHWEST HILLS LAKEVIEW V-B,5806 MESA DRIVE,30.34211813,-97.77127401,,,,,
1988-001957 PP,C-1000 Commercial Remodel,Remodel,5806 Mesa Drive                    A  00300,11/22/1988,Remodel Administrative Office,VOID,,,,,,,,,,,ASEM PROPERTIES LTD % KUCERA COMPANY,,,,,,AUSTIN,TX,78731 3069,,,,,52080,,1,,LOT 1 BLK N NORTHWEST HILLS LAKEVIEW V-B,5806 MESA DRIVE,30.34211813,-97.77127401,,,,,
1988-002099 EP,Sign Permit,,3110 Lamar Boulevard North         A  00000,11/22/1988,Pole Sign For Connelly Hillen Florist,Final,,,,,,,,,,,,,,,,,,,,,,,,,,1,,LOT 4A BLK 3 *RESUB LOT 4-6 PART OF 7 PATTERSON ADDN,3110 LAMAR BOULEVARD NORTH,30.24229414,-97.78474713,,,,,
1988-002100 EP,Sign Permit,,1900 Riverside Drive East          A  00000,11/22/1988,Pole Sign For Riverhills Center,Final,,,,,,,,,,,GRAYCO TOWN LAKE INVESTMENT 2007 LP,55 ,Waugh,DR,Suite,500,HOUSTON,TX,77007 5840,,,,,,,1,,LOT 2 BLK D SOUTH SHORE RETAIL AMENDING SUBD PLAT OF,1900 RIVERSIDE DRIVE EAST,30.24328462,-97.7284367,,,,,
1988-002101 EP,Sign Permit,,15413 I 35 Service Rd Northbnd Northa .00000,11/22/1988,Pole Sign For Village 3 Points/Movies 12,Final,,,,,,,,,,,,,,,,,,,,,,,,,,1,,,15413 I 35 SERVICE RD NORTHBND NORTHA .00000,,,,,,,
1988-002177 MP,Commercial,Remodel,8668 Spicewood Springs Road        A  00000,11/22/1988,Connect 3 Signs,Expired,,,,,,,,,,,,,,,,,,,,,,,,200,,1,,,8668 SPICEWOOD SPRINGS ROAD,30.43383985,-97.77006244,,,,,
1988-002181 PP,Residential ,Remodel,508 14 Street West                A B00000,11/22/1988,Pulled Gas Meter To Duplex Unit B,Final,,,,,,,,,,,NASSOUR JASON FAMILY PARTNERSHIP LTD,,,,,,AUSTIN,TX,78746 5021,,,,,150,,1,,Lot: 1 Block:   Subdivision: OUTLOT 177,508 14 STREET WEST,30.27781098,-97.74518927,,,,,
1988-002182 EP,Residential ,Remodel,415 Brady Lane                    A  00000,11/22/1988,Mechanical Changeout Residential (Rmd),Expired,,,,,,,,,,,,,,,,,,,,,,,,1975,,1,,Lot: 22 Block:   Subdivision: WEST LAKE HILLS ASSIGNED ADDRESS,415 BRADY LANE,30.27952717,-97.79038468,,,,,
1988-002182 MP,Residential ,Remodel,415 Brady Lane                    A  00000,11/22/1988,Mechanical Changeout Residential (Rmd),Expired,,,,,,,,,,,,,,,,,,,,,,,,1975,,1,,Lot: 22 Block:   Subdivision: WEST LAKE HILLS ASSIGNED ADDRESS,415 BRADY LANE,30.27952717,-97.79038468,,,,,
1988-002183 PP,Residential ,Remodel,518 Sacramento Drive              A  00000,11/22/1988,Repair Sewer Residential,Final,,,,,,,,,,,,,,,,,,,,,,,,880,,1,,Lot: 4 Block: A Subdivision: SOUTH PARK SEC 1,518 SACRAMENTO DRIVE,30.23585205,-97.76268242,,,,,
1988-002184 PP,Residential ,Remodel,1700 Bouldin Avenue                A  00000,11/22/1988,Pulled Meter Residential,Final,,,,,,,,,,,,,,,,,,,,,,,,200,,1,,"LOT 11 AIRDALE, LOT 7 & E 28.15FT OF LOT 6 BLK 5 MONROE HEIGHTS",1700 BOULDIN AVENUE,30.24974682,-97.75942502,,,,,
1988-002185 EP,Residential ,Remodel,1610 Holly Street                  A  00000,11/22/1988,H-T Loop O/H,Final,,,,,,,,,,,,,,,,,,,,,,,,100,,1,,Lot: 16 Block:   Subdivision: LEONARD M. TOBINS RESUB OF RIVERSIDE ADDITION,1610 HOLLY STREET,30.25486755,-97.7293048,,,,,
1988-002185 MP,Residential ,Remodel,1610 Holly Street                  A  00000,11/22/1988,H-T Loop O/H,Final,,,,,,,,,,,,,,,,,,,,,,,,100,,1,,Lot: 16 Block:   Subdivision: LEONARD M. TOBINS RESUB OF RIVERSIDE ADDITION,1610 HOLLY STREET,30.25486755,-97.7293048,,,,,
1988-002186 PP,Residential ,Remodel,9104 Leaning Rock Circle           C  00000,11/22/1988,Irrigation System Residential,Final,,,,,,,,,,,,,,,,,,,,,,,,3000,,1,,,9104 LEANING ROCK CIRCLE,30.3791799,-97.8263062,,,,,
1988-002187 PP,Residential ,Remodel,8816 Bell Mountain Drive           C  00000,11/22/1988,Irrigation System Residential,Final,,,,,,,,,,,,,,,,,,,,,,,,2500,,1,,,8816 BELL MOUNTAIN DRIVE,30.37755712,-97.82320725,,,,,
1988-002189 PP,Commercial,Remodel,5426 Guadalupe Street              A  00000,11/22/1988,Irrigation System Commercial,Final,,,,,,,,,,,,,,,,,,,,,,,,2500,,1,,LOT 1 CORSER SUBD 2,5426 GUADALUPE STREET,30.32210748,-97.72602147,,,,,
1988-002191 BP,C-1000 Commercial Remodel,Remodel,400 15 Street West                A .01419,11/22/1988,Adding Entry Door,VOID,,,,,,,,,,,AFIAA WFT LLC  AFIAA US INVESTMENT INC,,,,,,AUSTIN,TX,78701 1641,,,,,4000,,1,,N 1/2 & E 203 FT OF S 1/2 OF OLT 31 DIVISION E (TOTAL SQ FT 61597),400 15 STREET WEST,30.27818231,-97.74314887,,,,,
1988-002192 EP,Residential ,Remodel,14417 Jacobson Road                 D  00000,11/22/1988,Connect Electric Meter Loop Mobile Home,Final,,,,,,,,,,,,,,,,,,,,,,,,200,,1,,,14417 JACOBSON ROAD,30.13560276,-97.61611228,,,,,
1988-002192 MP,Residential ,Remodel,14417 Jacobson Road                 D  00000,11/22/1988,Connect Electric Meter Loop Mobile Home,Final,,,,,,,,,,,,,,,,,,,,,,,,200,,1,,,14417 JACOBSON ROAD,30.13560276,-97.61611228,,,,,
1988-002193 EP,Commercial,Remodel,8990 Research Boulevard            A  00000,11/22/1988,H-T Loop O/H For Tree Lights,Final,,,,,,,,,,,,,,,,,,,,,,,,100,,1,,ABS 217 SUR 15 DAVIS G W ACR 1.5983,8990 RESEARCH BOULEVARD,30.36990476,-97.72346056,,,,,
1988-002193 MP,Commercial,Remodel,8990 Research Boulevard            A  00000,11/22/1988,H-T Loop O/H For Tree Lights,Final,,,,,,,,,,,,,,,,,,,,,,,,100,,1,,ABS 217 SUR 15 DAVIS G W ACR 1.5983,8990 RESEARCH BOULEVARD,30.36990476,-97.72346056,,,,,
1988-002195 PP,Residential ,Remodel,2515  3 Street East                A  00000,11/22/1988,Residential Pulled Gas Meter,Final,,,,,,,,,,,GARCIA LACIADA V,,,,,,AUSTIN,TX,78702 4709,,,,,100,,1,,Lot: 8 Block: 1 Subdivision: CHERNOSKY SUBDN NO 3,2515 3 STREET EAST,30.25566996,-97.71496636,,,,,
1988-002197 PP,Commercial,Remodel,607 14 Street West                A  00000,11/22/1988,Pulled Meter Commercial,Final,,,,,,,,,,,,,,,,,,,,,,,,200,,1,,Lot: 7 Block: 154 Subdivision:  ,607 14 STREET WEST,30.27751052,-97.74624542,,,,,
1988-002198 PP,Commercial,Remodel,2808 Longhorn Boulevard            A  00305,11/22/1988,Commercial Pulled Gas Meter,Final,,,,,,,,,,,,,,,,,,,,,,,,100,,1,,,2808 LONGHORN BOULEVARD,30.38193035,-97.72743686,,,,,
1988-002200 PP,Residential ,Remodel,500 46 Street East                A  00000,11/22/1988,Sewer Repair Residential,VOID,,,,,,,,,,,DEEB RAMZI A,,,,,,AUSTIN,TX,78734 4209,,,,,850,,1,,Lot: 1 Block: A Subdivision: STAEHELY SUBDN,500 46 STREET EAST,30.30889673,-97.72314592,,,,,
1988-002201 PP,Residential ,Remodel,7401 Filbert Cove                  A  00000,11/22/1988,Irrigation System Residential,Final,,,,,,,,,,,,,,,,,,,,,,,,1900,,1,,,7401 FILBERT COVE,30.3795094,-97.7994034,,,,,
1988-002202 BP,R- 434 Addition & Alterations,Addition,4102 Edgemont Drive                A  00000,11/22/1988,Addition To Residence For A Bathroom,Expired,,,,,,,,,,,,,,,,,,,,,,,,4600,,1,,Lot: 17 Block:   Subdivision: BALCONES PARK ADDN SEC 6,4102 EDGEMONT DRIVE,30.32254544,-97.7687328,,,,,
1988-002202 EP,R- 434 Addition & Alterations,Addition,4102 Edgemont Drive                A  00000,11/22/1988,Addition To Residence For A Bathroom,VOID,,,,,,,,,,,,,,,,,,,,,,,,4600,,1,,Lot: 17 Block:   Subdivision: BALCONES PARK ADDN SEC 6,4102 EDGEMONT DRIVE,30.32254544,-97.7687328,,,,,
1988-002202 MP,R- 434 Addition & Alterations,Addition,4102 Edgemont Drive                A  00000,11/22/1988,Addition To Residence For A Bathroom,VOID,,,,,,,,,,,,,,,,,,,,,,,,4600,,1,,Lot: 17 Block:   Subdivision: BALCONES PARK ADDN SEC 6,4102 EDGEMONT DRIVE,30.32254544,-97.7687328,,,,,
1988-002202 PP,R- 434 Addition & Alterations,Addition,4102 Edgemont Drive                A  00000,11/22/1988,Addition To Residence For A Bathroom,VOID,,,,,,,,,,,,,,,,,,,,,,,,4600,,1,,Lot: 17 Block:   Subdivision: BALCONES PARK ADDN SEC 6,4102 EDGEMONT DRIVE,30.32254544,-97.7687328,,,,,
1988-002203 PP,Commercial,Remodel,408 Montopolis Drive              A  00000,11/22/1988,Pulled Meter Commercial,Final,,,,,,,,,,,,,,,,,,,,,,,,200,,1,,,408 MONTOPOLIS DRIVE,30.24097972,-97.69363052,,,,,
1988-002204 PP,Commercial,Remodel,14730 Interstate Highway 35 North   C  00000,11/22/1988,Irrigation System Commercial,Final,,,,,,,,,,,,,,,,,,,,,,,,1900,,1,,,14730 INTERSTATE HIGHWAY 35 NORTH,,,,,,,
1988-002205 BP,R- 434 Addition & Alterations,Addition,2801 Stratford Drive               A  00000,11/22/1988,Add Kitchen & Bedroom & Remodel Kitchen & ***,Final,,,,,,,,,,,,,,,,,,,,,,,,39000,,1,,Lot: 8 Block: D Subdivision: BLUFFINGTON SEC 2,2801 STRATFORD DRIVE,30.28032015,-97.78295649,,,,,
1988-002205 EP,R- 434 Addition & Alterations,Addition,2801 Stratford Drive               A  00000,11/22/1988,Add Kitchen & Bedroom & Remodel Kitchen & ***,Final,,,,,,,,,,,,,,,,,,,,,,,,39000,,1,,Lot: 8 Block: D Subdivision: BLUFFINGTON SEC 2,2801 STRATFORD DRIVE,30.28032015,-97.78295649,,,,,
1988-002205 MP,R- 434 Addition & Alterations,Addition,2801 Stratford Drive               A  00000,11/22/1988,Add Kitchen & Bedroom & Remodel Kitchen & ***,Final,,,,,,,,,,,,,,,,,,,,,,,,39000,,1,,Lot: 8 Block: D Subdivision: BLUFFINGTON SEC 2,2801 STRATFORD DRIVE,30.28032015,-97.78295649,,,,,
1988-002205 PP,R- 434 Addition & Alterations,Addition,2801 Stratford Drive               A  00000,11/22/1988,Add Kitchen & Bedroom & Remodel Kitchen & ***,Final,,,,,,,,,,,,,,,,,,,,,,,,39000,,1,,Lot: 8 Block: D Subdivision: BLUFFINGTON SEC 2,2801 STRATFORD DRIVE,30.28032015,-97.78295649,,,,,
1988-002206 BP,,,1206 Cedar Avenue                  A  00000,11/22/1988,Install 25\' Driveway-Commercial,Final,,,,,,,,,,,,,,,,,,,,,,,,6000,,1,,Lot: 9 Block:   Subdivision: GLENWOOD ADDN  1904,1206 CEDAR AVENUE,30.27544404,-97.7133035,,,,,
1988-002206 DS,Com. Driveway & Sidewalk,New,1206 Cedar Avenue                  A  00000,11/22/1988,Install 25\' Driveway-Commercial,Final,,,,,,,,,,,,,,,,,,,,,,,,6000,,,,Lot: 9 Block:   Subdivision: GLENWOOD ADDN  1904,1206 CEDAR AVENUE,30.27544404,-97.7133035,,,,,
1988-002207 MP,Commercial,Remodel,6801 River Place Boulevard         C  00000,11/22/1988,Connect Equipment - 3m,VOID,,,,,,,,,,,,,,,,,,,,,,,,10000,,1,,LOT 2&4 AUSTIN CENTER/3M,6801 RIVER PLACE BOULEVARD,30.39608767,-97.84447112,,,,,
1988-002208 DS,Res. Driveway & Sidewalk,Repair,3213 Beverly Road                  A  00000,11/22/1988,10\' Driveway Residence,VOID,,,,,,,,,,,,,,,,,,,,,,,,200,,,,Lot: 9 Block: 4 Subdivision: BRYKERWOODS E,3213 BEVERLY ROAD,30.3059206,-97.7545224,,,,,
1988-002209 PP,Residential ,Remodel,6304 Redgate Court                 C .00000,11/22/1988,Irrigation System To Residence,Final,,,,,,,,,,,,,,,,,,,,,,,,500,,1,,"Lot: 11 Block: L Subdivision: CIRCLE C RANCH, PHASE B, SEC 2",6304 REDGATE COURT,30.19018415,-97.89244489,,,,,
1988-002210 PP,Commercial,Remodel,111 St Johns Avenue East          A .00000,11/22/1988,Annual Gas Test,Final,,,,,,,,,,,,,,,,,,,,,,,,100,,1,,,111 ST JOHNS AVENUE EAST,30.33500705,-97.70918816,,,,,
1988-002211 PP,Residential ,Remodel,603 Bouldin Avenue                A  00000,11/22/1988,Annual Gas Test Commecial,Final,,,,,,,,,,,,,,,,,,,,,,,,150,,1,,,603 BOULDIN AVENUE,30.25827389,-97.75398357,,,,,
1988-002212 PP,Residential ,Remodel,2101 Fort View Road                A  00000,11/22/1988,Gas Test To Residence,Final,,,,,,,,,,,,,,,,,,,,,,,,75,,1,,Lot: 6 Block:   Subdivision: GOODNIGHT & PEARSON SUBDN,2101 FORT VIEW ROAD,30.23163495,-97.78936366,,,,,
1988-002213 BP,Residential ,Remodel,10504 Loring Drive                  C  00000,11/22/1988,Irrigation System To Residence,Expired,,,,,,,,,,,,,,,,,,,,,,,,500,,1,,,10504 LORING DRIVE,30.44594295,-97.80886352,,,,,
1988-002213 PP,Residential ,Remodel,10504 Loring Drive                  C  00000,11/22/1988,Irrigation System To Residence,Expired,,,,,,,,,,,,,,,,,,,,,,,,500,,1,,,10504 LORING DRIVE,30.44594295,-97.80886352,,,,,
1988-002214 BP,C-1000 Commercial Remodel,Remodel,2719 Guadalupe Street              A  00000,11/22/1988,Install Flexible Awnings Exist Bldg,Expired,,,,,,,,,,,,,,,,,,,,,,,,6300,,1,,,2719 GUADALUPE STREET,,,,,,,
1988-002215 EP,Residential ,Remodel,7407 Burleson-Manor Road           C  00000,11/22/1988,Remodel Service,Final,,,,,,,,,,,,,,,,,,,,,,,,300,,1,,Lot: 1 Block:   Subdivision: BROADHURST PARK,7407 BURLESON-MANOR ROAD,30.25993491,-97.52687572,,,,,
1988-002215 MP,Residential ,Remodel,7407 Burleson-Manor Road           C  00000,11/22/1988,Remodel Service,Final,,,,,,,,,,,,,,,,,,,,,,,,300,,1,,Lot: 1 Block:   Subdivision: BROADHURST PARK,7407 BURLESON-MANOR ROAD,30.25993491,-97.52687572,,,,,
1988-002216 PP,Commercial,Remodel,1220 Colorado Street               A  00000,11/22/1988,Pulled Gas Meter,Final,,,,,,,,,,,,,,,,,,,,,,,,100,,1,,Lot: 5 Block: 148 Subdivision:  ,1220 COLORADO STREET,30.27532768,-97.74237088,,,,,
1988-002217 EP,Commercial,Remodel,2420 Ridgepoint Drive              A .81494,11/22/1988,Install Cable For Badge Readers,VOID,,,,,,,,,,,,,,,,,,,,,,,,5000,,1,,,2420 RIDGEPOINT DRIVE,30.32909469,-97.67319815,,,,,
1988-002217 MP,Commercial,Remodel,2420 Ridgepoint Drive              A .81494,11/22/1988,Install Cable For Badge Readers,VOID,,,,,,,,,,,,,,,,,,,,,,,,5000,,1,,,2420 RIDGEPOINT DRIVE,30.32909469,-97.67319815,,,,,
1988-002218 PP,Commercial,Remodel,11511 Metric Boulevard              A  00000,11/22/1988,Repair Water Line,Final,,,,,,,,,,,KULA LTD,,,,,,WAILUKU,HI,96793 1690,,,,,500,,1,,,11511 METRIC BOULEVARD,30.39473336,-97.70618958,,,,,
1988-002219 BP,Residential ,Remodel,11554 Gun Fight Lane                C  00000,11/22/1988,New Residence,Final,,,,,,,,,,,,,,,,,,,,,,,,,,1,,Lot: 17 Block: K Subdivision: SHADY HOLLOW SEC 6 PH D,11554 GUN FIGHT LANE,30.15908628,-97.85076153,,,,,
1988-002219 PP,Residential ,Remodel,11554 Gun Fight Lane                C  00000,11/22/1988,New Residence,Final,,,,,,,,,,,,,,,,,,,,,,,,,,1,,Lot: 17 Block: K Subdivision: SHADY HOLLOW SEC 6 PH D,11554 GUN FIGHT LANE,30.15908628,-97.85076153,,,,,
1988-002220 BP,Residential ,Remodel,11525 Gun Fight Lane                C  00000,11/22/1988,New Residence,Final,,,,,,,,,,,,,,,,,,,,,,,,,,1,,Lot: 27 Block: J Subdivision: SHADY HOLLOW SEC 6 PH D,11525 GUN FIGHT LANE,30.15969199,-97.85344628,,,,,
1988-002220 PP,Residential ,Remodel,11525 Gun Fight Lane                C  00000,11/22/1988,New Residence,Final,,,,,,,,,,,,,,,,,,,,,,,,,,1,,Lot: 27 Block: J Subdivision: SHADY HOLLOW SEC 6 PH D,11525 GUN FIGHT LANE,30.15969199,-97.85344628,,,,,
1988-002221 EP,Commercial,Remodel,11400 Burnet Road                   A  81578,11/22/1988,Disconnect/Reconnect Power To Table Bldg 42,Final,,,,,,,,,,,,,,,,,,,,,,,,200,,1,,,11400 BURNET ROAD,30.39397776,-97.72417239,,,,,
1988-002221 MP,Commercial,Remodel,11400 Burnet Road                   A  81578,11/22/1988,Disconnect/Reconnect Power To Table Bldg 42,Final,,,,,,,,,,,,,,,,,,,,,,,,200,,1,,,11400 BURNET ROAD,30.39397776,-97.72417239,,,,,
1988-002222 EP,Commercial,Remodel,11400 Burnet Road                   A  81627,11/22/1988,Install Outlet Bldg 8,Final,,,,,,,,,,,,,,,,,,,,,,,,104,,1,,,11400 BURNET ROAD,30.39397776,-97.72417239,,,,,
1988-002222 MP,Commercial,Remodel,11400 Burnet Road                   A  81627,11/22/1988,Install Outlet Bldg 8,Final,,,,,,,,,,,,,,,,,,,,,,,,104,,1,,,11400 BURNET ROAD,30.39397776,-97.72417239,,,,,
1988-002223 EP,Residential ,Remodel,3805 Eastledge Drive               A  00000,11/22/1988,Mechanical Changeout Residential,Final,,,,,,,,,,,,,,,,,,,,,,,,1929,,1,,Lot: 5 Block: A Subdivision: BALCONES PARK EDGEMONT SEC,3805 EASTLEDGE DRIVE,30.31880506,-97.76722494,,,,,
1988-002223 MP,Residential ,Remodel,3805 Eastledge Drive               A  00000,11/22/1988,Mechanical Changeout Residential,VOID,,,,,,,,,,,,,,,,,,,,,,,,1929,,1,,Lot: 5 Block: A Subdivision: BALCONES PARK EDGEMONT SEC,3805 EASTLEDGE DRIVE,30.31880506,-97.76722494,,,,,
1988-002224 PP,Residential ,Remodel,8702 Willowick Drive               A  00000,11/22/1988,Install Water Heater Residential,Final,,,,,,,,,,,COHEN NEIL & LEAH,,,,,,AUSTIN,TX,78759 7535,,,,,300,,1,,,8702 WILLOWICK DRIVE,30.37718311,-97.74324312,,,,,
1988-002225 PP,Residential ,Remodel,1505 Karen Avenue                  A  00000,11/22/1988,Install Water Heater Residential,Final,,,,,,,,,,,,,,,,,,,,,,,,300,,1,,,1505 KAREN AVENUE,30.33724871,-97.73078464,,,,,
1988-002226 EP,Residential ,Remodel,5101 Johnny Morris Road            A  00100,11/22/1988,Connect Mobile Home,Final,,,,,,,,,,,,,,,,,,,,,,,,100,,1,,,5101 JOHNNY MORRIS ROAD,30.28351783,-97.65233711,,,,,
1988-002226 MP,Residential ,Remodel,5101 Johnny Morris Road            A  00100,11/22/1988,Connect Mobile Home,Final,,,,,,,,,,,,,,,,,,,,,,,,100,,1,,,5101 JOHNNY MORRIS ROAD,30.28351783,-97.65233711,,,,,
1988-002226 PP,Residential ,Remodel,5101 Johnny Morris Road            A  00100,11/22/1988,Connect Mobile Home,Final,,,,,,,,,,,,,,,,,,,,,,,,100,,1,,,5101 JOHNNY MORRIS ROAD,30.28351783,-97.65233711,,,,,
1988-002227 BP,R- 435 Renovations/Remodel ,Remodel,7500 Hardy Drive                   A .00000,11/22/1988,Replace Existing Wall (Water Damaged),Final,,,,,,,,,,,ENRIQUEZ JUANA,,,,,,AUSTIN,TX,78757 1838,,,,,400,,1,,,7500 HARDY DRIVE,30.34899887,-97.7306793,,,,,
1988-002227 MP,R- 435 Renovations/Remodel ,Remodel,7500 Hardy Drive                   A .00000,11/22/1988,Replace Existing Wall (Water Damaged),Expired,,,,,,,,,,,ENRIQUEZ JUANA,,,,,,AUSTIN,TX,78757 1838,,,,,400,,1,,,7500 HARDY DRIVE,30.34899887,-97.7306793,,,,,
1988-002228 BP,R- 434 Addition & Alterations,Addition,1006 Alegria Road                  A  00000,11/22/1988,Add Living Room Residence,Expired,,,,,,,,,,,,,,,,,,,,,,,,3000,,1,,,1006 ALEGRIA ROAD,30.33220561,-97.7251517,,,,,
1988-002228 EP,R- 434 Addition & Alterations,Addition,1006 Alegria Road                  A  00000,11/22/1988,Add Living Room Residence,VOID,,,,,,,,,,,,,,,,,,,,,,,,3000,,1,,,1006 ALEGRIA ROAD,30.33220561,-97.7251517,,,,,
1988-002228 MP,R- 434 Addition & Alterations,Addition,1006 Alegria Road                  A  00000,11/22/1988,Add Living Room Residence,VOID,,,,,,,,,,,,,,,,,,,,,,,,3000,,1,,,1006 ALEGRIA ROAD,30.33220561,-97.7251517,,,,,
1988-002228 PP,R- 434 Addition & Alterations,Addition,1006 Alegria Road                  A  00000,11/22/1988,Add Living Room Residence,VOID,,,,,,,,,,,,,,,,,,,,,,,,3000,,1,,,1006 ALEGRIA ROAD,30.33220561,-97.7251517,,,,,
1988-002230 BP,C-1000 Commercial Remodel,Remodel,1601 Rio Grande Street             A  00320,11/22/1988,Finish Out For Law Office,Final,,,,,,,,,,,,,,,,,,,,,,,,19000,,1,,LOT 1 REESE MORRIS M ADDN,1601 RIO GRANDE STREET,30.28014334,-97.74532875,,,,,
1988-002230 EP,C-1000 Commercial Remodel,Remodel,1601 Rio Grande Street             A  00320,11/22/1988,Finish Out For Law Office,Final,,,,,,,,,,,,,,,,,,,,,,,,19000,,1,,LOT 1 REESE MORRIS M ADDN,1601 RIO GRANDE STREET,30.28014334,-97.74532875,,,,,
1988-002230 MP,C-1000 Commercial Remodel,Remodel,1601 Rio Grande Street             A  00320,11/22/1988,Finish Out For Law Office,Final,,,,,,,,,,,,,,,,,,,,,,,,19000,,1,,LOT 1 REESE MORRIS M ADDN,1601 RIO GRANDE STREET,30.28014334,-97.74532875,,,,,
1988-002230 PP,C-1000 Commercial Remodel,Remodel,1601 Rio Grande Street             A  00320,11/22/1988,Finish Out For Law Office,Final,,,,,,,,,,,,,,,,,,,,,,,,19000,,1,,LOT 1 REESE MORRIS M ADDN,1601 RIO GRANDE STREET,30.28014334,-97.74532875,,,,,
1988-002231 PP,Residential ,Remodel,5508 Avenue G                      A  00000,11/22/1988,Pulled Meter Residential,Final,,,,,,,,,,,,,,,,,,,,,,,,200,,1,,LOT 9-10 BLK 37 HIGHLANDS THE,5508 AVENUE G,30.32012628,-97.71868278,,,,,
1988-002232 PP,Residential ,Remodel,11203 Pencewood Drive               C  00000,11/22/1988,Irrigation System To Residence,Final,,,,,,,,,,,,,,,,,,,,,,,,1800,,1,,,11203 PENCEWOOD DRIVE,30.44121088,-97.81074518,,,,,
1988-002233 BP,R- 434 Addition & Alterations,Addition,10219 Willfield Drive               A  00000,11/22/1988,Add Greenhouse And Hot Tub Residence,Final,,,,,,,,,,,,,,,,,,,,,,,,22500,,1,,,10219 WILLFIELD DRIVE,30.36215481,-97.67030005,,,,,
1988-002233 EP,R- 434 Addition & Alterations,Addition,10219 Willfield Drive               A  00000,11/22/1988,Add Greenhouse And Hot Tub Residence,Final,,,,,,,,,,,,,,,,,,,,,,,,22500,,1,,,10219 WILLFIELD DRIVE,30.36215481,-97.67030005,,,,,
1988-002233 MP,R- 434 Addition & Alterations,Addition,10219 Willfield Drive               A  00000,11/22/1988,Add Greenhouse And Hot Tub Residence,Final,,,,,,,,,,,,,,,,,,,,,,,,22500,,1,,,10219 WILLFIELD DRIVE,30.36215481,-97.67030005,,,,,
1988-002234 PP,Residential ,Remodel,1007 Payne Avenue                  A  00000,11/22/1988,Repair Gas Leak To Residence,Final,,,,,,,,,,,HERNANDEZ ODELIA F TR,,,,,,AUSTIN,TX,78757 3021,,,,,100,,1,,,1007 PAYNE AVENUE,30.33350846,-97.72497617,,,,,
1988-002235 BP,R- 435 Renovations/Remodel ,Remodel,607 33 Street West                A  00000,11/22/1988,Foundation Repair To Existing Residence,VOID,,,,,,,,,,,BONER RICHARD & SUSAN PRYOR,3300,DUVAL,ST,,,AUSTIN,TX,78705 2432,(512) 476-5676,,,,6500,,1,,Lot: 7 Block: 2 Subdivision: GYPSY GROVE OUTLOTS 75 76 DIV D  1890,607 33 STREET WEST,30.30005657,-97.74073771,,,,,
1988-002236 BP,C-1000 Commercial Remodel,Remodel,1925 Rutland Drive                 A G00000,11/22/1988,Remodel Existing Office Space,Final,,,,,,,,,,,,,,,,,,,,,,,,1300,,1,,Lot: LOT 1-A Block:   Subdivision:  ,1925 RUTLAND DRIVE,30.37887565,-97.71309526,,,,,
1988-002236 EP,C-1000 Commercial Remodel,Remodel,1925 Rutland Drive                 A G00000,11/22/1988,Remodel Existing Office Space,Final,,,,,,,,,,,,,,,,,,,,,,,,1300,,1,,Lot: LOT 1-A Block:   Subdivision:  ,1925 RUTLAND DRIVE,30.37887565,-97.71309526,,,,,
1988-002237 BP,R- 435 Renovations/Remodel ,Remodel,2421 Vista Lane                    A  00000,11/22/1988,Foundation Repair To Existing Residence,Final,,,,,,,,,,,,,,,,,,,,,,,,7450,,1,,Lot: 12 Block:   Subdivision: MIRA LOMA,2421 VISTA LANE,30.29515789,-97.76448933,,,,,
1988-002238 BP,C-1000 Commercial Remodel,Remodel,1925 Rutland Drive                 A F00000,11/22/1988,Remodel Existing Office Space/Storage,Final,,,,,,,,,,,,,,,,,,,,,,,,400,,1,,Lot: LOT 1-A Block:   Subdivision:  ,1925 RUTLAND DRIVE,30.37887565,-97.71309526,,,,,
1988-002239 EP,Commercial,Remodel,9009 North Plaza                   A  00110,11/22/1988,Mechanical Changeout Commercial (Rmd),VOID,,,,,,,,,,,,,,,,,,,,,,,,2600,,1,,,9009 NORTH PLAZA,30.35243275,-97.68601113,,,,,
1988-002239 MP,Commercial,Remodel,9009 North Plaza                   A  00110,11/22/1988,Mechanical Changeout Commercial (Rmd),VOID,,,,,,,,,,,,,,,,,,,,,,,,2600,,1,,,9009 NORTH PLAZA,30.35243275,-97.68601113,,,,,
1988-002240 BP,R- 435 Renovations/Remodel ,Remodel,7549 Fireoak Drive                 A  00000,11/22/1988,Retaining Wall Residential,Final,,,,,,,,,,,,,,,,,,,,,,,,13000,,1,,,7549 FIREOAK DRIVE,30.41617669,-97.77596812,,,,,
1988-002241 BP,C-1000 Commercial Remodel,Remodel,213  4 Street West                A  00202,11/22/1988,Remodel Exist Advertising Firm Office,VOID,,,,,,,,,,,213 4TH STREET PARNERS L P & CAMPUS FLATS LTD,,,,,,AUSTIN,TX,78701 2781,,,,,9500,,1,,Lot: 10 Block:   Subdivision: OUTLOT 28 DIVISION E,213 4 STREET WEST,30.26650315,-97.74553915,,,,,
1988-002241 BP,C-1000 Commercial Remodel,Remodel,213  4 Street West                A  00202,11/22/1988,Remodel Exist Advertising Firm Office,VOID,,,,,,,,,,,213 4TH STREET PARNERS L P & CAMPUS FLATS LTD,602,7th,Street,,#C,AUSTIN,TX,78701 2741,,,,,9500,,1,,Lot: 10 Block:   Subdivision: OUTLOT 28 DIVISION E,213 4 STREET WEST,30.26650315,-97.74553915,,,,,
1988-002241 EP,C-1000 Commercial Remodel,Remodel,213  4 Street West                A  00202,11/22/1988,Remodel Exist Advertising Firm Office,VOID,,,,,,,,,,,213 4TH STREET PARNERS L P & CAMPUS FLATS LTD,602,7th,Street,,#C,AUSTIN,TX,78701 2741,,,,,9500,,1,,Lot: 10 Block:   Subdivision: OUTLOT 28 DIVISION E,213 4 STREET WEST,30.26650315,-97.74553915,,,,,
1988-002241 EP,C-1000 Commercial Remodel,Remodel,213  4 Street West                A  00202,11/22/1988,Remodel Exist Advertising Firm Office,VOID,,,,,,,,,,,213 4TH STREET PARNERS L P & CAMPUS FLATS LTD,,,,,,AUSTIN,TX,78701 2781,,,,,9500,,1,,Lot: 10 Block:   Subdivision: OUTLOT 28 DIVISION E,213 4 STREET WEST,30.26650315,-97.74553915,,,,,
1988-002241 MP,C-1000 Commercial Remodel,Remodel,213  4 Street West                A  00202,11/22/1988,Remodel Exist Advertising Firm Office,VOID,,,,,,,,,,,213 4TH STREET PARNERS L P & CAMPUS FLATS LTD,602,7th,Street,,#C,AUSTIN,TX,78701 2741,,,,,9500,,1,,Lot: 10 Block:   Subdivision: OUTLOT 28 DIVISION E,213 4 STREET WEST,30.26650315,-97.74553915,,,,,
1988-002241 MP,C-1000 Commercial Remodel,Remodel,213  4 Street West                A  00202,11/22/1988,Remodel Exist Advertising Firm Office,VOID,,,,,,,,,,,213 4TH STREET PARNERS L P & CAMPUS FLATS LTD,,,,,,AUSTIN,TX,78701 2781,,,,,9500,,1,,Lot: 10 Block:   Subdivision: OUTLOT 28 DIVISION E,213 4 STREET WEST,30.26650315,-97.74553915,,,,,
1988-002241 PP,C-1000 Commercial Remodel,Remodel,213  4 Street West                A  00202,11/22/1988,Remodel Exist Advertising Firm Office,VOID,,,,,,,,,,,213 4TH STREET PARNERS L P & CAMPUS FLATS LTD,,,,,,AUSTIN,TX,78701 2781,,,,,9500,,1,,Lot: 10 Block:   Subdivision: OUTLOT 28 DIVISION E,213 4 STREET WEST,30.26650315,-97.74553915,,,,,
1988-002241 PP,C-1000 Commercial Remodel,Remodel,213  4 Street West                A  00202,11/22/1988,Remodel Exist Advertising Firm Office,VOID,,,,,,,,,,,213 4TH STREET PARNERS L P & CAMPUS FLATS LTD,602,7th,Street,,#C,AUSTIN,TX,78701 2741,,,,,9500,,1,,Lot: 10 Block:   Subdivision: OUTLOT 28 DIVISION E,213 4 STREET WEST,30.26650315,-97.74553915,,,,,
1988-002242 BP,C-1000 Commercial Remodel,Remodel,213  4 Street West                A  00200,11/22/1988,Remodel For Architect Office,VOID,,,,,,,,,,,213 4TH STREET PARNERS L P & CAMPUS FLATS LTD,602,7th,Street,,#C,AUSTIN,TX,78701 2741,,,,,7700,,1,,Lot: 10 Block:   Subdivision: OUTLOT 28 DIVISION E,213 4 STREET WEST,30.26650315,-97.74553915,,,,,
1988-002242 BP,C-1000 Commercial Remodel,Remodel,213  4 Street West                A  00200,11/22/1988,Remodel For Architect Office,VOID,,,,,,,,,,,213 4TH STREET PARNERS L P & CAMPUS FLATS LTD,,,,,,AUSTIN,TX,78701 2781,,,,,7700,,1,,Lot: 10 Block:   Subdivision: OUTLOT 28 DIVISION E,213 4 STREET WEST,30.26650315,-97.74553915,,,,,
1988-002242 EP,C-1000 Commercial Remodel,Remodel,213  4 Street West                A  00200,11/22/1988,Remodel For Architect Office,VOID,,,,,,,,,,,213 4TH STREET PARNERS L P & CAMPUS FLATS LTD,,,,,,AUSTIN,TX,78701 2781,,,,,7700,,1,,Lot: 10 Block:   Subdivision: OUTLOT 28 DIVISION E,213 4 STREET WEST,30.26650315,-97.74553915,,,,,
1988-002242 EP,C-1000 Commercial Remodel,Remodel,213  4 Street West                A  00200,11/22/1988,Remodel For Architect Office,VOID,,,,,,,,,,,213 4TH STREET PARNERS L P & CAMPUS FLATS LTD,602,7th,Street,,#C,AUSTIN,TX,78701 2741,,,,,7700,,1,,Lot: 10 Block:   Subdivision: OUTLOT 28 DIVISION E,213 4 STREET WEST,30.26650315,-97.74553915,,,,,
1988-002242 MP,C-1000 Commercial Remodel,Remodel,213  4 Street West                A  00200,11/22/1988,Remodel For Architect Office,Final,,,,,,,,,,,213 4TH STREET PARNERS L P & CAMPUS FLATS LTD,602,7th,Street,,#C,AUSTIN,TX,78701 2741,,,,,7700,,1,,Lot: 10 Block:   Subdivision: OUTLOT 28 DIVISION E,213 4 STREET WEST,30.26650315,-97.74553915,,,,,
1988-002242 MP,C-1000 Commercial Remodel,Remodel,213  4 Street West                A  00200,11/22/1988,Remodel For Architect Office,Final,,,,,,,,,,,213 4TH STREET PARNERS L P & CAMPUS FLATS LTD,,,,,,AUSTIN,TX,78701 2781,,,,,7700,,1,,Lot: 10 Block:   Subdivision: OUTLOT 28 DIVISION E,213 4 STREET WEST,30.26650315,-97.74553915,,,,,
1988-002242 PP,C-1000 Commercial Remodel,Remodel,213  4 Street West                A  00200,11/22/1988,Remodel For Architect Office,VOID,,,,,,,,,,,213 4TH STREET PARNERS L P & CAMPUS FLATS LTD,602,7th,Street,,#C,AUSTIN,TX,78701 2741,,,,,7700,,1,,Lot: 10 Block:   Subdivision: OUTLOT 28 DIVISION E,213 4 STREET WEST,30.26650315,-97.74553915,,,,,
1988-002242 PP,C-1000 Commercial Remodel,Remodel,213  4 Street West                A  00200,11/22/1988,Remodel For Architect Office,VOID,,,,,,,,,,,213 4TH STREET PARNERS L P & CAMPUS FLATS LTD,,,,,,AUSTIN,TX,78701 2781,,,,,7700,,1,,Lot: 10 Block:   Subdivision: OUTLOT 28 DIVISION E,213 4 STREET WEST,30.26650315,-97.74553915,,,,,
1988-013663 BP,C-1000 Commercial Remodel,Remodel,403 15 Street East                A  00000,11/22/1988,Remodel/Create Ronald Mcdonald House,Final,,,,,,,,,,,,,,,,,,,,,,,,675000,,1,,Lot: LOT 1 Block:   Subdivision: WATERLOO PARK SEC 1,403 15 STREET EAST,30.27773081,-97.74323438,,,,,
1988-013663 EP,C-1000 Commercial Remodel,Remodel,403 15 Street East                A  00000,11/22/1988,Remodel/Create Ronald Mcdonald House,Final,,,,,,,,,,,,,,,,,,,,,,,,675000,,1,,Lot: LOT 1 Block:   Subdivision: WATERLOO PARK SEC 1,403 15 STREET EAST,30.27773081,-97.74323438,,,,,
1988-013663 MP,C-1000 Commercial Remodel,Remodel,403 15 Street East                A  00000,11/22/1988,Remodel/Create Ronald Mcdonald House,Final,,,,,,,,,,,,,,,,,,,,,,,,675000,,1,,Lot: LOT 1 Block:   Subdivision: WATERLOO PARK SEC 1,403 15 STREET EAST,30.27773081,-97.74323438,,,,,
1988-013663 PP,C-1000 Commercial Remodel,Remodel,403 15 Street East                A  00000,11/22/1988,Remodel/Create Ronald Mcdonald House,Final,,,,,,,,,,,,,,,,,,,,,,,,675000,,1,,Lot: LOT 1 Block:   Subdivision: WATERLOO PARK SEC 1,403 15 STREET EAST,30.27773081,-97.74323438,,,,,
1988-016154 EP,Sign Permit,,4631 Airport Boulevard             A  00000,11/22/1988,Building Sign For Billards,Final,,,,,,,,,,,HOUSTON 6000 BISSONNET LTD % TARANTION PROPERTIES INC,7887,San Felipe,,Suite,237,HOUSTON,TX,77063 1621,(512) 302-4109,,,,,,1,,3.199 ACR OF BLK U RIDGETOP FOURTH ADDN & LOT 3 LESS E 5.01 FT AV DYESS SUBD,4631 AIRPORT BOULEVARD,30.30609432,-97.71506425,,,,,
1988-016548 EP,Sign Permit,,31 I 35 Service Rd Northbnd Northa  00000,11/22/1988,Pole Sign For Texaco,Final,,,,,,,,,,,,,,,,,,,,,,,,,,1,,,31 I 35 SERVICE RD NORTHBND NORTHA 00000,,,,,,,
1988-016558 EP,Sign Permit,,5840 Balcones Drive                A  00000,11/22/1988,Building Sign For Farmers Insurance Group,Final,,,,,,,,,,,,,,,,,,,,,,,,,,1,,,5840 BALCONES DRIVE,30.34112152,-97.75517004,,,,,
