permit_number,sub_type,work_type,permit_location,date_issued,work_description,status,folder_owner,folder_owner_addrhouse,folder_owner_addrstreet,folder_owner_addrstreettype,folder_owner_addrunittype,folder_owner_addrunit,folder_owner_addrcity,folder_owner_addrprovince,folder_owner_addrpostal,folder_owner_phone,property_owner,property_owner_addrhouse,property_owner_addrstreet,property_owner_addrstreettype,property_owner_addrunittype,property_owner_addrunit,property_owner_addrcity,property_owner_addrprovince,property_owner_addrpostal,property_owner_phone,total_existing_bldg_footage,total_new_add_footage,total_valuation_remodel,total_job_valuation,remodel_repair_footage,number_of_units,usage_category,legal_description,lat,lng
2004-001906 MP,R- 101 Single Family Houses,New,2800 Rivercrest Dr,01/19/2005,"New Two Story Res W/Att Garage, Covered Patio & Porch",Final,"George Christianson, Casa Mechanical Services",2401,Old Settlers,,,,Round Rock,TX,78665,(512) 334-7300,,,,,,,,,,,,,,344000,,1,,,30.33120421,-97.82212487
2004-001940 MP,R- 101 Single Family Houses,New,2128 Sage Creek Loop,01/19/2005,"New Sf Residence W/ Attached Carport, Deck, Porch",Final,"George Christianson, Casa Mechanical Services",2401,Old Settlers,,,,Round Rock,TX,78665,(512) 334-7300,,,,,,,,,,,,,,103200,,1,,Lot: 4 Block: B Subdivision: SAGE CREEK SUBDIVISION (AKA ELM CREEK),30.23635487,-97.74205844
2004-002122 MP,R- 103 Two Family Bldgs,New,8905 Mountain Shadows Cv,01/19/2005,"New Duplex W/ Attached Garages, Cov'D Patios, Balconies",Final,"George Christianson, Casa Mechanical Services",2401,Old Settlers,,,,Round Rock,TX,78665,(512) 334-7300,,,,,,,,,,,,,,131450,,2,,,30.25422219,-97.89608333
2004-002434 MP,C-1000 Commercial Remodel,Remodel,4100 Jackson Ave,01/19/2005,Addition And Remodel To Existing Activity Room,Final,"Craig Briggs, Briggs Mechanical, INC.",,,,,,Buda,TX,78610,(512) 312-2500,STATE OF TEXAS,,,,,,AUSTIN,TX,78761 5426,,,,,,,,,,30.31435691,-97.75536888
2004-002885 EP,R- 101 Single Family Houses,New,1605 Strickland Dr,01/19/2005,"Sf Residence W/Attached Garage, Cov'D Porch & Uncov'D Patio (Smart Housing)",Final,"Ronnie Kruse,",2215,Investment,DR,,,Pflugerville,TX,78660,(512) 252-0040,,,,,,,,,,,,,,55662,,1,,Lot: 73 Block: B Subdivision: DITTMAR CROSSING (SMART HOUSING),30.18209086,-97.8140078
2004-002897 MP,R- 101 Single Family Houses,New,2113 Petrified Forest Dr,01/19/2005,"New One Story Res W./Att Garage, Covered Porch & Uncovered Patio",Final,"George Christianson, Casa Mechanical Services",2401,Old Settlers,,,,Round Rock,TX,78665,(512) 334-7300,,,,,,,,,,,,,,62240,,,,Lot: 10 Block: F Subdivision: PARKSIDE AT SLAUGHTER CREEK SECTION 3,30.15489179,-97.78568494
2004-002922 EP,R- 434 Addition & Alterations,Addition,5100 Avenue H,01/19/2005,"Add To Enlarge 1st Fl. Sunrm & Master Suite. Add 2nd Fl. 2 Beds, 1 Bath. Int Rmdl Of Exist Sf Res.",Final,"Leonard Wiegel, Wieco Electric",,,,,,CEDAR PARK,TX,78630,(512) 551-2163,,,,,,,,,,,,,,66000,,,,Lot: 2 Block: Subdivision: HIGHLANDS THE,30.3149156,-97.72090353
2004-002947 EP,R- 434 Addition & Alterations,Addition,1709 Clifford Ave,01/19/2005,"Addn To Exist Sf Residence For Bedrm,Bath & Laundry Room Only",Final,"Tony Jaramillo, Jr.,",1818,Madison,Av,,,Austin,TX,78757,(512) 657-9926,SAMUELS MARVIN APT 1,,,,,,OAKLAND,CA,94608 1400,,,,,17900,,1,,,30.28061224,-97.70727054
2004-002948 EP,R- 101 Single Family Houses,New,1916 Cetona Ct,01/19/2005,"New Sf Residence W/ Attached Garage, Cov'D Patio, Cov'D Porch",Final,"Bryan Neal, Powerhouse Electrical Services, Inc.",503,Farley,DR,,,Austin,TX,78753,(512) 832-8900,,,,,,,,,,,,,,261200,,1,,Lot: 2 Block: Subdivision: THE OVERLOOK AT TREEMONT; AMENDED PLAT OF,30.26507159,-97.8083013
2004-002953 EP,R- 435 Renovations/Remodel,Remodel,4601 Banister Ln,01/19/2005,New Guest House (Ldc 25-2-893 Accessory Uses For A Principal Residential Use (D) Guest House),Final,"Ty Davis, Tyco Electrical Services",5614,Shoalwood Avenue,,,,Austin,Tx,,(512) 563-5960,,,,,,,,,,,,,,72000,,,,Lot: 1 Block: J Subdivision: FOREST OAKS,30.22171558,-97.78250001
2004-002954 MP,R- 434 Addition & Alterations,Addition,1812 Pasadena Dr,01/19/2005,Add 2 Bedrooms To Existing Sf Residence,VOID,"Mcgehee Word, Allied Mechanical",1903,Westridge,DR,,,Austin,TX,78704,(512) 443-4466,,,,,,,,,,,,,,26000,,1,,,30.34742773,-97.72942628
2004-003038 MP,R- 101 Single Family Houses,New,1802 Village Oak Ct,01/19/2005,Single-Family Attached Res W/Cov'D Porch (Ldc 25-2-772),Final,"Charles Artale,",3001,Industrial Terrace,,,,Austin,TX,78758,(512) 821-3163,BRAUER CLINT & KRISTEN LATTO,,,,,,AUSTIN,TX,78704 5171,,,,,,,1,,Lot: 8A Block: A Subdivision: DEL CURTO PLACE,30.24303551,-97.7758858
2004-003038 MP,R- 101 Single Family Houses,New,1802 Village Oak Ct,01/19/2005,Single-Family Attached Res W/Cov'D Porch (Ldc 25-2-772),Final,"Charles Artale,",3001,Industrial Terrace,,,,Austin,TX,78758,(512) 821-3163,FREDERICK AMY KATHLEEN TRUST WILLIAM H COWDEN JR,,,,,,KERRVILLE,TX,78028,,,,,,,1,,Lot: 8A Block: A Subdivision: DEL CURTO PLACE,30.24303551,-97.7758858
2004-005544 MP,R- 103 Two Family Bldgs,New,505 Delmar Ave,01/19/2005,New 2 Sty Duplex W./Att Garage Cvd Porch-Courtyard (Smart Housing),Final,"Charles Artale,",3001,Industrial Terrace,,,,Austin,TX,78758,(512) 821-3163,,,,,,,,,,,,,,130000,,1,,,30.3372468,-97.70480301
2004-005775 PP,C-1000 Commercial Remodel,Remodel,2219 Manor Rd,01/19/2005,Interior Remodel To Existing Take-Out Restaurant (El Chilito),Final,"Lanier Fowler, Fowler'S Plumbing Repairs",8704,Dorman,Cove,,,Ausitn,TX,78717,(512) 990-3760,,,,,,,,,,,,,,9700,,,,Lot: 5 Block: Subdivision: OUTLOT 46 DIV D BLKS 3=6 1890,30.28434882,-97.71829743
2004-006210 MP,R- 101 Single Family Houses,New,1602 Dittmar Oaks Cv,01/19/2005,"New One Story Res W/Att Garage, Covered Porch & Uncovered Patio (S.Ma.R.T. Housing)",Final,"George Christianson, Casa Mechanical Services",2401,Old Settlers,,,,Round Rock,TX,78665,(512) 334-7300,,,,,,,,,,,,,,49762,,,,Lot: 31 Block: C Subdivision: DITTMAR CROSSING (SMART HOUSING),30.18379185,-97.81284656
2004-006242 MP,R- 101 Single Family Houses,New,15416 Belfin Dr,01/19/2005,New 1 Sty Sf Residence W.Att Garage Cvd Porch-Patio,Final,"Stanley Johnson,",9200,WATERFORD CENTRE,BLVD,Unit,100,AUSTIN,TX,78758,(512) 929-9393,,,,,,,,,,,,,,165000,,1,,,30.49564362,-97.76497787
2004-006287 MP,R- 101 Single Family Houses,New,1600 Dittmar Oaks Cv,01/19/2005,"Sf Residence W/Attached Garage, Cov'D Porch & Uncov'D Patio (Smart Housing)",Final,"George Christianson, Casa Mechanical Services",2401,Old Settlers,,,,Round Rock,TX,78665,(512) 334-7300,,,,,,,,,,,,,,55662,,1,,Lot: 30 Block: C Subdivision: DITTMAR CROSSING (SMART HOUSING),30.18365363,-97.81284703
2004-006602 MP,R- 101 Single Family Houses,New,2212 Dry Tortugas Trl,01/19/2005,"New Two Story Res W/Att Garage, Covered Porch & Uncovered Patio",Final,"George Christianson, Casa Mechanical Services",2401,Old Settlers,,,,Round Rock,TX,78665,(512) 334-7300,,,,,,,,,,,,,,67760,,,,Lot: 97 Block: C Subdivision: PARKSIDE AT SLAUGHTER CREEK SECTION 3,30.15382841,-97.78368587
2004-006615 MP,R- 101 Single Family Houses,New,2001 E 16th St,01/19/2005,New Two Story Res W/Att Covered Patio & Porch,Final,"Gilbert Rosipal, Air-Rite by Design Inc",16110,FM 1826,RD,,,AUSTIN,TX,78737,(512) 288-2243,,,,,,,,,,,,,,100000,,,,,,
2004-006647 EP,R- 101 Single Family Houses,New,1607 Strickland Dr,01/19/2005,New Two Story Res W/Att Garage & Covered Porch & Uncovered Patio(S.Ma.R.T.Housing),Final,"Ronnie Kruse,",2215,Investment,DR,,,Pflugerville,TX,78660,(512) 252-0040,,,,,,,,,,,,,,60119,,,,Lot: 72 Block: B Subdivision: DITTMAR CROSSING (SMART HOUSING),30.18209047,-97.81412637
2004-009314 MP,R- 101 Single Family Houses,New,3709 Windsor Rd,01/19/2005,"New Sf Residence W/ Attached Garage, Cov'D Porch",Final,"George Christianson, Casa Mechanical Services",2401,Old Settlers,,,,Round Rock,TX,78665,(512) 334-7300,MOSCOE N D & ELLIS ANNE,,,,,,AUSTIN,TX,78703 1523,,,,,380000,,1,,Lot: 6 Block: 1 Subdivision:,30.30189741,-97.77886167
2004-009933 MP,R- 434 Addition & Alterations,Addition,4505 Ramsey Ave,01/19/2005,"Add 1st Flr Bedrm/Bath, Enlarge Porch, 2nd Flr 2 Bedrms, Bath & Remodel Kitchen Of Exist Sf Res&Upgrading Exst. Elec Srv Only",Final,"Derek Herring, Austin Independent Mechanical",5025,FM 2001,,,,Buda,TX,78610,(512) 312-9080,,,,,,,,,,,,,,60000,,1,,Lot: 18 Block: Subdivision: ROSEDALE F,30.31649864,-97.74293823
2004-010236 EP,R- 434 Addition & Alterations,Addition,1213 Tamranae Ct,01/19/2005,1sty & 2nd Sty Addn To Exist Sf Res-For Gameroom-Bath-Laundry Room,Final,"Tracy Williams, W2 Electric",12011,Dove Haven,,,,Austin,TX,78753,(512) 905-4398,,,,,,,,,,,,,,58000,,1,,Lot: 46 Block: A Subdivision: TREEMONT PH B SEC 5,30.2667938,-97.79679797
2004-010243 MP,R- 434 Addition & Alterations,Addition,7207 Bethune Ave,01/19/2005,New Detached Two Family Residential & Uncovered Patio (Ldc 25-2-774)**Smart Housing,Final,"Charles Artale,",3001,Industrial Terrace,,,,Austin,TX,78758,(512) 821-3163,,,,,,,,,,,,,,30000,,,,,30.33046819,-97.69778062
2004-010348 MP,R- 101 Single Family Houses,New,12541 Campana Dr,01/19/2005,"New One Story Res W/Att Garage, Covered Patio & Porch (S.Ma.R.T. Housing)",Final,"George Christianson, Casa Mechanical Services",2401,Old Settlers,,,,Round Rock,TX,78665,(512) 334-7300,,,,,,,,,,,,,,57000,,,,Lot: 17 Block: F Subdivision: LOS CIELOS SEC 1,30.168515,-97.62663927
2004-010382 MP,R- 101 Single Family Houses,New,7207 Bethune Ave,01/19/2005,New Two Story Res W/Att Covered Porch**(Smart Housing)**,Final,"Charles Artale,",3001,Industrial Terrace,,,,Austin,TX,78758,(512) 821-3163,,,,,,,,,,,,,,60000,,,,,30.33046819,-97.69778062
2004-010386 PP,C- 101 Single Family Houses,New,2800 Waymaker Way Unit 9,01/19/2005,New 2sty Condo/Watt Garage Cvd Porch-Flagstone Patio,Final,"Robert Christianson,",1950,Louis Henna,BLVD,,,Round Rock,TX,78664,(512) 246-5200,,,,,,,,,,,,,,220000,,1,,UNT 1 DAVENPORT RIM CONDOMINIUMS AMENDED PLUS 1.429 % INT IN COM AREA,30.32580313,-97.80976756
2004-010413 MP,R- 438 Residential Garage/Carport Addn,New,1802 Village Oak Ct,01/19/2005,Detached Carport W/Gameroom & Bathroom,Final,"Charles Artale,",3001,Industrial Terrace,,,,Austin,TX,78758,(512) 821-3163,FREDERICK AMY KATHLEEN TRUST WILLIAM H COWDEN JR,,,,,,KERRVILLE,TX,78028,,,,,,,,,Lot: 8A Block: A Subdivision: DEL CURTO PLACE,30.24303551,-97.7758858
2004-010413 MP,R- 438 Residential Garage/Carport Addn,New,1802 Village Oak Ct,01/19/2005,Detached Carport W/Gameroom & Bathroom,Final,"Charles Artale,",3001,Industrial Terrace,,,,Austin,TX,78758,(512) 821-3163,BRAUER CLINT & KRISTEN LATTO,,,,,,AUSTIN,TX,78704 5171,,,,,,,,,Lot: 8A Block: A Subdivision: DEL CURTO PLACE,30.24303551,-97.7758858
2004-012896 MP,R- 103 Two Family Bldgs,New,7408 Providence Ave,01/19/2005,New Detached Two Family Residential & Uncovered Pati0 (Ldc 25-2-774)S.M.A.R.T Housing,Final,"Charles Artale,",3001,Industrial Terrace,,,,Austin,TX,78758,(512) 821-3163,,,,,,,,,,,,,,30000,,,,,30.33263788,-97.69566351
2004-013170 MP,R- 101 Single Family Houses,New,9433 Caves Valley Dr,01/19/2005,New 2 Sty Sf Residence W.Att Garage Cvd Porch-Patio,Final,"Stanley Johnson,",9200,WATERFORD CENTRE,BLVD,Unit,100,AUSTIN,TX,78758,(512) 929-9393,,,,,,,,,,,,,,118000,,1,,,30.49547893,-97.7584043
2004-013707 MP,R- 101 Single Family Houses,New,12840 Buenos Aires Pkwy,01/19/2005,"New Sf Residence W/ Attached Garage, Cov'D Porch, Uncov'D Patio @ Grade (Smart Housing)",Final,"George Christianson, Casa Mechanical Services",2401,Old Settlers,,,,Round Rock,TX,78665,(512) 334-7300,,,,,,,,,,,,,,75000,,1,,Lot: 11 Block: R Subdivision: LOS CIELOS SEC 1,30.16765611,-97.62208874
2004-013890 MP,R- 103 Two Family Bldgs,New,7204 Carver Ave,01/19/2005,New 2 Sty Duplex-6 Bdrms- W.Att Garage Cvd Porch-Patio-Courtyard (Smart Housing),Final,"Charles Artale,",3001,Industrial Terrace,,,,Austin,TX,78758,(512) 821-3163,,,,,,,,,,,,,,130000,,1,,,30.33108897,-97.69943198
2004-016677 EP,R- 434 Addition & Alterations,Addition,3502 Lafayette Ave,01/19/2005,"Add 2 Bedrms, 1 Bath, Utility Rm.",Final,"Larry Webb, Adobe Electric Inc",8104,Bounty,TRL,,,Austin,TX,78749,(512) 844-9704,,,,,,,,,,,,,,25000,,,,Lot: 17 Block: 8 Subdivision:,30.29175254,-97.71769085
2004-016687 MP,R- 101 Single Family Houses,New,1803 Village Oak Ct,01/19/2005,"Single-Family Attached Res W/Attached Carport, Storagerm, Cov'D Porch & Uncov'D Patio (Ldc 25-2-772)",Final,"Charles Artale,",3001,Industrial Terrace,,,,Austin,TX,78758,(512) 821-3163,,,,,,,,,,,,,,126900,,1,,LOT 7B BLK A DEL CURTO PLACE,30.24293944,-97.77594122
2004-016742 MP,R- 101 Single Family Houses,New,10224 Chestnut Ridge Rd,01/19/2005,"New Sf Residence W/ Attached Garage, Cov'D Porch, Uncov'D Wd Deck At Grade",Final,"George Christianson, Casa Mechanical Services",2401,Old Settlers,,,,Round Rock,TX,78665,(512) 334-7300,,,,,,,,,,,,,,128440,,1,,LOT 26 BLK B CANYON CREEK SEC 28,30.4336245,-97.82246852
2004-016979 MP,R- 101 Single Family Houses,New,15432 Fisher Island Dr,01/19/2005,New 2 Sty Sf Residence W.Att Garage Cvd Porch-Uncvd Patio,Final,"Stanley Johnson,",9200,WATERFORD CENTRE,BLVD,Unit,100,AUSTIN,TX,78758,(512) 929-9393,,,,,,,,,,,,,,140000,,1,,,30.49661048,-97.76455741
2004-017118 MP,R- 101 Single Family Houses,New,7105 Magenta Ln,01/19/2005,"New Two Story Res W/Att Garages, Covered Patio, Porch & Uncovered Patio",Final,"Twin Burnham,",414,Thompson,Ln,,,Austin,TX,78742,(512) 385-4961,,,,,,,,,,,,,,165000,,,,Lot: 32 Block: D Subdivision: HIELSCHER SECTION 14,30.1870129,-97.90797425
2004-017520 EP,C- 329 Com Structures Other Than Bldg,New,14423 Ridgetop Ter,01/19/2005,New Swimming Pool W/ Spa And Req'D Enclosure Device,VOID,"Ty Davis, Tyco Electrical Services",5614,Shoalwood Avenue,,,,Austin,Tx,,(512) 563-5960,,,,,,,,,,,,1042,,70000,,,,LOT 22-22A COMANCHE POINT,30.41677859,-97.89957728
2004-020419 MP,R- 101 Single Family Houses,New,12509 Emerald Oaks Dr,01/19/2005,New 2 Sty Sf Residence W.Att Garage Cvd Porch-Patio,Final,"George Christianson, Casa Mechanical Services",2401,Old Settlers,,,,Round Rock,TX,78665,(512) 334-7300,,,,,,,,,,,,,,127000,,,,"Lot: 7 Block: A Subdivision: BARKER RANCH AT SHADY HOLLOW, THE",30.14952538,-97.85604298
2004-020420 EP,R- 101 Single Family Houses,New,1609 Strickland Dr,01/19/2005,New 2 Sty Sf Residence W.Att Garage Cvd Porch Uncvd Patio- Smart Housing Project,Final,"Ronnie Kruse,",2215,Investment,DR,,,Pflugerville,TX,78660,(512) 252-0040,,,,,,,,,,,,,,65790,,1,,Lot: 71 Block: B Subdivision: DITTMAR CROSSING (SMART HOUSING),30.18208491,-97.81425757
2004-020825 PP,R- 101 Single Family Houses,New,5708 Keli Ct,01/19/2005,"New Sf Residence W/ Attached Garage, Cov'D Patio, Cov'D Porch",Final,"Robert Christianson,",1950,Louis Henna,BLVD,,,Round Rock,TX,78664,(512) 246-5200,,,,,,,,,,,,,,110925,,1,,"Lot: 83 Block: E Subdivision: LANTANA SINGLE FAMILY, SECTION 1",30.24756997,-97.87227393
2004-020897 PP,R- 101 Single Family Houses,New,15521 Prestancia Dr,01/19/2005,"New Two Story Res W/Att Garage, Covered Patio & Porch",Final,"Todd Cox, Mustang Plumbing, Inc.",2001,Red Bud,LN,,,Round Rock,TX,78664,,,,,,,,,,,,,,,198977,,,,,30.50100786,-97.76475558
2004-020974 EP,R- 101 Single Family Houses,New,9205 Brents Elm Dr,01/19/2005,"New One Story Res W/Att Garage, Covered Patio & Porch",Final,"Ronnie Kruse,",2215,Investment,DR,,,Pflugerville,TX,78660,(512) 252-0040,,,,,,,,,,,,,,65516,,,,Lot: 33 Block: 10 Subdivision: CROSSING AT ONION CREEK SEC 1,30.16091716,-97.78039977
2004-020978 MP,R- 101 Single Family Houses,New,11519 Robert Wooding Dr,01/19/2005,"New Sf Residence W/ Attached Garage, Cov'D Porch, Uncov'D Patio @ Grade (Smart Housing)",Final,"Robert C Henderson, Austin Air Conditioning, Inc.",13620,IMMANEUL,RD,,,PFLUGERVILLE,TX,78660,(512) 252-7711,,,,,,,,,,,,,,70000,,1,,Lot: 23 Block: C Subdivision: CHAPPELL HILL,30.14991147,-97.8282634
2004-020980 MP,R- 101 Single Family Houses,New,11521 Robert Wooding Dr,01/19/2005,"New Sf Residence W/ Attached Garage, Cov'D Porch, Uncov'D Patio @ Grade (Smart Housing)",Final,"Robert C Henderson, Austin Air Conditioning, Inc.",13620,IMMANEUL,RD,,,PFLUGERVILLE,TX,78660,(512) 252-7711,,,,,,,,,,,,,,70000,,1,,Lot: 22 Block: C Subdivision: CHAPPELL HILL,30.14979236,-97.82826352
2004-021330 MP,R- 101 Single Family Houses,New,2224 Dry Tortugas Trl,01/19/2005,"New One Story Res W/Att Garage, Covered Patio & Porch",Final,"George Christianson, Casa Mechanical Services",2401,Old Settlers,,,,Round Rock,TX,78665,(512) 334-7300,,,,,,,,,,,,,,67760,,,,Lot: 94 Block: C Subdivision: PARKSIDE AT SLAUGHTER CREEK SECTION 3,30.15378552,-97.78320906
2004-021357 EP,C- 329 Com Structures Other Than Bldg,New,11901 West Cow Path,01/19/2005,New Swimming Pool W/ Spa And Required Enclosure Device,Final,"Dennis Hall, River City Electric",,,,,,Austin,TX,78714,(512) 848-0216,,,,,,,,,,,,,,22840,,,,,30.42050417,-97.74352299
2004-021383 EP,Residential,Remodel,1714 W 34th St,01/19/2005,New Hvac To Exst. Res. Only,VOID,"Billy Shirley, Shirley Electric Company",707,Live Oak,,,,Lockhart,TX,78644,(512) 376-6667,SCHMIDT CHARLES L & MARY LOUISE SCHMIDT WALTHER,,,,,,LOCKHART,TX,78644 2948,,,,,3950,,,,LOT 7 & W30 FT OF LOT 8 BLK 3 BRYKERWOODS E,30.30736522,-97.7536002
2004-021445 EP,R- 101 Single Family Houses,New,9203 Brents Elm Dr,01/19/2005,"New One Story Res W/Att Garage, Covered Patio & Porch",Final,"Ronnie Kruse,",2215,Investment,DR,,,Pflugerville,TX,78660,(512) 252-0040,,,,,,,,,,,,,,64070,,,,Lot: 34 Block: 10 Subdivision: CROSSING AT ONION CREEK SEC 1,30.1610366,-97.780459
2004-021495 MP,R- 101 Single Family Houses,New,7408 Providence Ave,01/19/2005,New Two Story Res W/Att Covered Porch**Smart Housing**,Final,"Charles Artale,",3001,Industrial Terrace,,,,Austin,TX,78758,(512) 821-3163,,,,,,,,,,,,,,90000,,,,,30.33263788,-97.69566351
2005-000020 PP,R- 101 Single Family Houses,New,1913 Short Summer Dr,01/19/2005,"New Sf Residence W/ Attached Garage, Uncov'D Patio @ Grade",Final,"William Samsel, Custom Plumbing Co., Inc",9511,Brown,LN,,,Austin,TX,78754,(512) 837-7313,,,,,,,,,,,,,,102704,,1,,,30.37268331,-97.652082
2005-000147 BP,R- 434 Addition & Alterations,Addition,8216 Kearsarge Dr,01/19/2005,"Adding 2nd Fl Master Suite, Gameroom, Balcony/Decking & Hallway",Final,"Ricky Arocha,",6412,AUBURN,DR,Unit,2,AUSTIN,TX,78723,(512) 657-5199,,,,,,,,,,,,,,70000,,,,Lot: 46 Block: E Subdivision:,30.19466188,-97.8212247
2005-000147 EP,R- 434 Addition & Alterations,Addition,8216 Kearsarge Dr,01/19/2005,"Adding 2nd Fl Master Suite, Gameroom, Balcony/Decking & Hallway",Final,"Leonel Lozano(Owner),",,,,,,,,,,,,,,,,,,,,,,,70000,,,,Lot: 46 Block: E Subdivision:,30.19466188,-97.8212247
2005-000240 BP,C-1000 Commercial Remodel,Remodel,707 E Braker Ln Unit 202,01/19/2005,Change Of Use And Interior Remodel From Retail/Food Sales To Personal Services (Between The Lines Tattoo & Body Piercing Studio),Final,"Freddie Galvan,",,,,,,,,,(512) 280-1389,,,,,,,,,,,,,,1785,,,,LOT 3 & S 138' AV OF LOTS 1 & 2 DANIEL C L JR,30.37674636,-97.67763085
2005-000244 EP,C-1000 Commercial Remodel,Remodel,7501 E Ben White Blvd,01/19/2005,Interior Remodel To Existing Hotel To Create A Cocktail Bar,Final,"Jesse Beckett, Beckett Electrical Services",,,,,,Austin,TX,78708,(512) 346-7462,,,,,,,,,,,,,,36000,,,,"Lot: 2A Block: A Subdivision: METRO CENTER SECTION 3, BLOCK A, LOT 2 RESUBDIVISION",,
2005-000322 PP,R- 435 Renovations/Remodel,Remodel,5203 Rambling Range,01/19/2005,Remodel Existing Garage To Create Familyroom,Final,"Rene Cedillos, Superior Plumbing Contractors",,,,,,Hutto,TX,78634,(512) 759-2385,,,,,,,,,,,,,,15800,,,,,30.42110195,-97.73826024
2005-000352 EP,C- 329 Com Structures Other Than Bldg,New,11105 CUSSETA LN,01/19/2005,New Swimming Pool,Final,"Joel Johnson, Global Efficient Energy",5321,Industrial Oaks,BLVD,,105,Austin,TX,78745,(512) 815-8177,,,,,,,,,,,,578,,40000,,,,"Lot: 202 Block: I Subdivision: THE HIELSCHER, AMENDED PLATS OF LOTS 163 & 164 SECTION 12 & SECTION 10",,
2005-000405 EP,Sign Permit,New,2501 S I 35 Svc Rd Nb,01/19/2005,"Wall Sign Replacement ""Suburban Extended Stay Hotel"" Cabinet. West Elev",VOID,,,,,,,,,,,,,,,,,,,,,,,,,,,,,,
2005-000448 BP,R- 101 Single Family Houses,New,11319 Naples Cv,01/19/2005,"New One Story Res W/Att Garage, Covered Patio & Porch",Final,"Greg Svajian, Village Builders",12301,Research,Blvd,Bsuit,B#4-U#100,Austin,TX,78759,(512) 336-2223,SANTOS JUAN D & MARIE L,,,,,,AUSTIN,TX,78739 2058,,,,,136628,,,,Lot: 21 Block: K Subdivision: HIELSCHER SECTION 13,30.18945031,-97.90205198
2005-000448 DS,Res. Driveway & Sidewalk,New,11319 Naples Cv,01/19/2005,"New One Story Res W/Att Garage, Covered Patio & Porch",Final,"Crow, William",,,,,,Austin,TX,78760-0,,SANTOS JUAN D & MARIE L,,,,,,AUSTIN,TX,78739 2058,,,,,136628,,,,Lot: 21 Block: K Subdivision: HIELSCHER SECTION 13,30.18945031,-97.90205198
2005-000449 BP,R- 101 Single Family Houses,New,11401 Naples Cv,01/19/2005,"New Two Story Res W/Att Garage, Covered Patio & Porch",Final,"Greg Svajian, Village Builders",12301,Research,Blvd,Bsuit,B#4-U#100,Austin,TX,78759,(512) 336-2223,,,,,,,,,,,,,,154784,,,,Lot: 22 Block: K Subdivision: HIELSCHER SECTION 13,30.18927461,-97.90191786
2005-000449 DS,Res. Driveway & Sidewalk,New,11401 Naples Cv,01/19/2005,"New Two Story Res W/Att Garage, Covered Patio & Porch",Final,"Crow, William",,,,,,Austin,TX,78760-0,,,,,,,,,,,,,,,154784,,,,Lot: 22 Block: K Subdivision: HIELSCHER SECTION 13,30.18927461,-97.90191786
2005-000480 PP,R- 101 Single Family Houses,New,6608 Quinton Dr,01/19/2005,New 2 Sty Sf Residence W.Att Garage Cvd Porch-Uncvd Patio *Smart Housing Project*,Final,"Robert Christianson,",1950,Louis Henna,BLVD,,,Round Rock,TX,78664,(512) 246-5200,,,,,,,,,,,,,,59179,,1,,"Lot: 54 Block: D Subdivision: MCKINNEY PARK EAST SECTION 2, AMENDED PLAT OF",30.15327778,-97.74256458
2005-000492 BP,R- 101 Single Family Houses,New,7332 Covered Bridge Dr,01/19/2005,"New Two Story Res W/Att Garage, Covered Patio & Porch",Final,"Drees Custom Homes, L.P.",7300,FM 2222,Hwy,Unit,250,Austin,TX,78730,(512) 241-7133,,,,,,,,,,,,,,161101,,,,LOT 20 BLK E COVERED BRIDGE SUBD SEC 4,30.24142644,-97.90037997
2005-000492 DS,Res. Driveway & Sidewalk,New,7332 Covered Bridge Dr,01/19/2005,"New Two Story Res W/Att Garage, Covered Patio & Porch",Final,"Harrell Enterprises, LP",1710,Sullivan,,,,Pflugerville,TX,78660,(512) 990-7573,,,,,,,,,,,,,,161101,,,,LOT 20 BLK E COVERED BRIDGE SUBD SEC 4,30.24142644,-97.90037997
2005-000507 BP,R- 101 Single Family Houses,New,7612 Black Mountain Dr,01/19/2005,"New Two Story Res W/Att Garage, Covered Porch & Uncovered Patio",Final,"Wilshire Homes, L.P.",12401,research,BLVD,Bldg,1-300,Austin,TX,78759,(512) 485-3335,,,,,,,,,,,,,,163059,,,,Lot: 32 Block: C Subdivision: COVERED BRIDGE SUBDIVISION SECTION 6,30.23826683,-97.90127123
2005-000507 DS,Res. Driveway & Sidewalk,New,7612 Black Mountain Dr,01/19/2005,"New Two Story Res W/Att Garage, Covered Porch & Uncovered Patio",Final,"Wilshire Homes, L.P.",12401,research,BLVD,Bldg,1-300,Austin,TX,78759,(512) 485-3335,,,,,,,,,,,,,,163059,,,,Lot: 32 Block: C Subdivision: COVERED BRIDGE SUBDIVISION SECTION 6,30.23826683,-97.90127123
2005-000511 BP,R- 101 Single Family Houses,New,10905 Split Stone Way,01/19/2005,"New Two Story Res W/Att Garage, Covered Porch & Uncovered Patio",Final,"Streetman Homes, Ltd LLP",4407,Bee Caves,Rd,Suite,212,Austin,TX,78746,(512) 329-9966,,,,,,,,,,,,,,148794,,,,Lot: 8 Block: C Subdivision: LA CROSSE SUBDIVISION SEC 1,30.19523777,-97.90343399
2005-000511 DS,Res. Driveway & Sidewalk,,10905 Split Stone Way,01/19/2005,"New Two Story Res W/Att Garage, Covered Porch & Uncovered Patio",Final,"Streetman Homes, Ltd LLP",4407,Bee Caves,Rd,Suite,212,Austin,TX,78746,(512) 329-9966,,,,,,,,,,,,,,148794,,,,Lot: 8 Block: C Subdivision: LA CROSSE SUBDIVISION SEC 1,30.19523777,-97.90343399
2005-000615 BP,R- 434 Addition & Alterations,Addition,2302 Woodmont Ave,01/19/2005,"Remodel Existing Livingroom & Kitchen To Create Closet , Bathroom & Extend Existing Kitchen, Playroom & Bedroom",VOID,Burton Construction,1818,South Lakeshore,,Unit,20,Austin,TX,78727,(512) 891-6828,,,,,,,,,,,,368,,35000,,,,Lot: 98 Block: Subdivision: TARRYTOWN PLACE,30.29068913,-97.76616358
2005-000615 EP,R- 434 Addition & Alterations,Addition,2302 Woodmont Ave,01/19/2005,"Remodel Existing Livingroom & Kitchen To Create Closet , Bathroom & Extend Existing Kitchen, Playroom & Bedroom",VOID,"Tera Keesee(Owner),",,,,,,,,,,,,,,,,,,,,,368,,35000,,,,Lot: 98 Block: Subdivision: TARRYTOWN PLACE,30.29068913,-97.76616358
2005-000615 MP,R- 434 Addition & Alterations,Addition,2302 Woodmont Ave,01/19/2005,"Remodel Existing Livingroom & Kitchen To Create Closet , Bathroom & Extend Existing Kitchen, Playroom & Bedroom",VOID,"Tera Keesee,",,,,,,,,,,,,,,,,,,,,,368,,35000,,,,Lot: 98 Block: Subdivision: TARRYTOWN PLACE,30.29068913,-97.76616358
2005-000615 PP,R- 434 Addition & Alterations,Addition,2302 Woodmont Ave,01/19/2005,"Remodel Existing Livingroom & Kitchen To Create Closet , Bathroom & Extend Existing Kitchen, Playroom & Bedroom",VOID,"Tera Keesee(Owner),",,,,,,,,,,,,,,,,,,,,,368,,35000,,,,Lot: 98 Block: Subdivision: TARRYTOWN PLACE,30.29068913,-97.76616358
2005-000676 EP,Sign Permit,New,2501 S I 35 Svc Rd Nb,01/19/2005,"Freestanding Sign ""Suburban Extended Stay Hotel"" 3' Oah W/12' Setback",VOID,,,,,,,,,,,,,,,,,,,,,,,,,,,,,,
2005-000686 EP,R- 434 Addition & Alterations,Addition,10709 Maelin Dr,01/19/2005,Add 2nd Fl For Gameroom & Powder Room,Final,"Larry Webb, Adobe Electric Inc",8104,Bounty,TRL,,,Austin,TX,78749,(512) 844-9704,,,,,,,,,,,,,,92000,,,,Lot: 167 Block: Subdivision: HIELSCHER SECTION 12,30.19078407,-97.90223199
2005-000774 BP,R- 435 Renovations/Remodel,Remodel,6708 Cromarty Ln,01/19/2005,*Do Not Issue Until Ready For Remdl**Convert Office Back To Sf Res Garage Add Dw,Expired,"Sheryl Coble, Kimball Hill Homes",7800,Shoal Creek Bv,,Suite,230-S,Austin,TX,78757,(512) 421-3214,,,,,,,,,,,,,,2000,,,,,30.35366603,-97.61070938
2005-000793 BP,R- 435 Renovations/Remodel,Remodel,1502 Sylvan Glade,01/19/2005,Repair Fire Damage & Enclose Carport To Create Livingroom Extension,Expired,"Ryan Coggin(Owner),",,,,,,,,,(512) 657-4819,,,,,,,,,,,,,,15000,,,,Lot: 14 Block: C Subdivision:,30.22416475,-97.78505686
2005-000793 EP,R- 435 Renovations/Remodel,Remodel,1502 Sylvan Glade,01/19/2005,Repair Fire Damage & Enclose Carport To Create Livingroom Extension,Expired,"Ryan Coggin(Owner),",,,,,,,,,,,,,,,,,,,,,,,15000,,,,Lot: 14 Block: C Subdivision:,30.22416475,-97.78505686
2005-000793 PP,R- 435 Renovations/Remodel,Remodel,1502 Sylvan Glade,01/19/2005,Repair Fire Damage & Enclose Carport To Create Livingroom Extension,Expired,"Ryan Coggin(Owner),",,,,,,,,,,,,,,,,,,,,,,,15000,,,,Lot: 14 Block: C Subdivision:,30.22416475,-97.78505686
2005-000812 PP,C-1000 Commercial Remodel,Remodel,8440 Burnet Rd,01/19/2005,Interior Remodel To Create Retail,Final,"Larry Olson, Ars Srv. Express",2306,Howard,Ln,,,Austin,TX,78728,(512) 345-4050,W M INVESTMENTS NO FOUR SPECTR NO FOUR SPECTRUM,,,,,,AUSTIN,TX,78757 8066,,,,,6000,,,,,30.36658319,-97.72870848
2005-000837 EP,C- 329 Com Structures Other Than Bldg,New,8800 Mountbatten Cir,01/19/2005,New Swimming Pool W/ Spa And Req'D Enclosure Device,VOID,"Ty Davis, Tyco Electrical Services",5614,Shoalwood Avenue,,,,Austin,Tx,,(512) 563-5960,,,,,,,,,,,,629,,54000,,,,,30.36010596,-97.83307926
2005-000844 BP,Residential,Remodel,2312 Riverside Farms Rd,01/19/2005,City Sewer Cut Over To Exst Resid - Unit B (This Also Has New Water Meter),Expired,,,,,,,,,,,TRANSIER BRADEN,,,,,,AUSTIN,TX,78756 2918,,,,,500,,,,Lot: 42 Block: Subdivision:,30.2252452,-97.71820206
2005-000844 PP,Residential,Remodel,2312 Riverside Farms Rd,01/19/2005,City Sewer Cut Over To Exst Resid - Unit B (This Also Has New Water Meter),Expired,"Bruce Johnson, Bruce David Johnson Jr. Plumber",1904,Eva,St,,,Austin,TX,78704,(512) 443-2691,TRANSIER BRADEN,,,,,,AUSTIN,TX,78756 2918,,,,,500,,,,Lot: 42 Block: Subdivision:,30.2252452,-97.71820206
2005-000894 EP,Residential,Remodel,9601 Newfoundland Cir,01/19/2005,Rebuild Existing Elec Srv,Final,"Lance G. Swedlund, Centre Pointe Electric",2720,AMEN CORNER,RD,,,PFLUGERVILLE,TX,78660,(512) 990-1600,,,,,,,,,,,,,,1200,,,,,30.37204963,-97.70706366
2005-000914 BP,C-1000 Commercial Remodel,Remodel,1921 Cedar Bend Dr Bldg A Unit 130,01/19/2005,"Interior Remodel To Existing Admn/Bus Office To Create ""White Box"" ***Not For Occupancy*** Shell Only***",Final,Sage Construction,,,,,,Austin,TX,78767,(512) 970-9692,,,,,,,,,,,,,,45000,,,,,30.40832233,-97.69824332
2005-000954 EP,Residential,Remodel,3301 Crownover St,01/19/2005,New S/F Resid Elec Srv Only Eud,Final,"Ronnie Kruse,",2215,Investment,DR,,,Pflugerville,TX,78660,(512) 252-0040,,,,,,,,,,,,,,,,,,Lot: 17 Block: F Subdivision: AUSTIN'S COLONY PHASE IV,30.23029885,-97.58791098
2005-000970 BP,Residential,Remodel,3910 Avenue H,01/19/2005,Finish Out Bldg Pmt Ref#04007220 . (See permit #2008-052966),VOID,"Randy Swearer(Owner),",,,,,,,,,(512) 220-9992,,,,,,,,,,,,,,,,,,Lot: 45 Block: Subdivision: SHADOW LAWN,30.30123269,-97.72996742
2005-000972 PP,Commercial,Remodel,1508 Woodlawn Blvd,01/19/2005,Pulled Gas Meter To Exst Comm Apt Unit C,Final,"David C Manning,",101,Dube,LN,,,McDade,TX,78650,(512) 563-3131,,,,,,,,,,,,,,700,,,,Lot: 76 Block: Subdivision:,30.28434886,-97.76022861
2005-000973 BP,C-1000 Commercial Remodel,Remodel,9300 S I 35 Svc Rd Sb Unit C900,01/19/2005,Tenant Finsh Out To Create Personal Service (Supercut),Final,"Craig Price,",2237,Avenue A,,,,San Leon,TX,77539,(281) 734-9848,,,,,,,,,,,,,,44000,,,,"Lot: 1 Block: Subdivision: SLAUGHTER/IH-35 COMMERCIAL, RESUBDIVISION OF LOTS 1 & 2",,
2005-000974 EP,Residential,Remodel,6100-B Conti Ct,01/19/2005,Elec Srv Rebuild To Resid,Final,"Daniel Albrecht, 1st Choice Energy LLC",12213,Waters Park,RD,,,Austin,TX,78759,(512) 748-7753,,,,,,,,,,,,,,700,,,,Lot: 29 Block: E Subdivision: YARRABEE BEND SOUTH SEC 1,,
2005-000978 PP,Residential,Remodel,405 Academy Dr,01/19/2005,Replace Existing Water Line,Final,"Gary E. Lott, The Plumber",15305,Hebbe,LN,,,PFLUGERVILLE,TX,78660,(512) 453-7586,NEEDHAM MARY & KARIN ASCOT,,,,,,AUSTIN,TX,78704 1812,,,,,300,,,,"Lot: 24-A Block: Subdivision: FAIRVIEW PARK, AMENDED PLAT OF LOTS 23 & 24",30.25144757,-97.74430321
2005-000983 BP,R- 435 Renovations/Remodel,Remodel,815 Sahara Ave,01/19/2005,Repair Foundation To Existing Sf Residence,Expired,Armadillo Foundation Repair,5135,ALBERT BROWN,RD,,,DEL VALLE,TX,78617,(512) 385-2123,,,,,,,,,,,,,,5900,,1,,LOT 2 BLK B TURTLE CREEK ESTATES SEC 1,30.20496933,-97.78638727
2005-000986 BP,R- 434 Addition & Alterations,Addition,2605 Velasquez Dr,01/19/2005,2nd Sty Add For 2bdrms-Baths 1st Sty Sunroom/1/2 Bath In Garage Rmdl-Kitchen Gen.Finishes On Interior To Sf Residence/Relocating & Upgrading Exs.T Elec Srv,Final,"Mike Nagy, Don Crowell, Inc.",5524,J1 Bee Caves,Rd,,,Austin,TX,78746,(512) 913-8304,,,,,,,,,,,,,,150000,,1,,Lot: 7 Block: A Subdivision: BELLO VISTA,30.30496215,-97.7728405
2005-000988 EP,Residential,Remodel,1633 Waterston Ave Unit A,01/19/2005,Install Solar Panel To Resid,Final,"Janet Hughes,",5350,BURNET,RD,Suite,8,AUSTIN,TX,78756,(512) 748-2952,,,,,,,,,,,,,,15000,,,,"Lot: 3 Block: Subdivision: MAAS ADDITION, RESUB OF PART OF LOT 7, BLOCK 14",30.28162112,-97.76121715
2005-000989 EP,Residential,Remodel,1027 Ellingson Ln,01/19/2005,Upgrade Elec Srv To Exst Resid,Final,"Artie Wayne Hudson, Hudson Electric Service",7606,Thomas Springs,RD,,,Austin,TX,78736,(512) 894-0909,,,,,,,,,,,,,,1000,,,,Lot: 25 Block: Subdivision:,30.30252011,-97.71714702
2005-000990 PP,Residential,Remodel,1309 Romeria Dr,01/19/2005,Repairing Exst. Gas Line Only,Final,"William Samsel, Custom Plumbing Co., Inc",9511,Brown,LN,,,Austin,TX,78754,(512) 837-7313,"Carlton C Knape,",1309,ROMERIA,DR,,,AUSTIN,TX,78757 3441,(512) 844-5861,,,,500,,,,,30.33296534,-97.73006275
2005-000991 PP,Residential,Remodel,813 South Center St,01/19/2005,Res. Pulled Gas Meter Only,VOID,"Gary Hacker, Clarke Kent Plumbing, Inc.",1408,Ben White,BLVD,,,Austin,TX,78704,(512) 477-2200,BLOOMQUIST EDWARD G,,,,,,AUSTIN,TX,78735 1477,,,,,500,,,,LOT 1 MEDLOCK SUBD,30.23103824,-97.77121339
2005-000991 PP,Residential,Remodel,813 South Center St,01/19/2005,Res. Pulled Gas Meter Only,VOID,"Gary Hacker, Clarke Kent Plumbing, Inc.",1408,Ben White,BLVD,,,Austin,TX,78704,(512) 477-2200,BLOOMQUIST EDWARD G,,,,,,AUSTIN,TX,78735 1477,,,,,500,,,,LOT 1 MEDLOCK SUBD,30.23103824,-97.77121339
2005-000992 BP,R- 434 Addition & Alterations,Addition,406 Powell Cir,01/19/2005,Addn To Exist Sf Residence To Create Carport-Wd Deck-Cvd Porch,Final,"Jerry Cornelius(Owner),",,,,,,,,,,,,,,,,,,,,,,,11000,,1,,LOT 13 BLK D SOUTH PARK SEC 1,30.2341093,-97.76190845
2005-000994 EP,Residential,Remodel,1503 Tall Shadows Dr,01/19/2005,Connect Mobile Home,Final,"George Allen O'Bannon, OBannon Enterprises",8203,Roan,Ln,,,Austin,TX,78736,(512) 288-4110,,,,,,,,,,,,,,500,,,,Lot: 26 Block: E Subdivision:,30.22387031,-97.66816177
2005-000996 PP,Residential,Remodel,2617 1/2 Bess Ln,01/19/2005,Install New Irrigation System To Exst Resid Subdivision Island Only(Back Flow Perventer)Only,Expired,"Alex Sedillo, Trees & Landscape",,,,,,Buda,TX,78620,(512) 704-4034,,,,,,,,,,,,,,100,,,,Lot: 3 Block: FF Subdivision: BAUERLE RANCH,30.16775837,-97.83633011
2005-001000 PP,Residential,Remodel,2614 1/2 Bolton St,01/19/2005,Install New Irrigation System To Exst Resid Subdivison Island Only (Back Flow Perventer),Expired,"Alex Sedillo, Trees & Landscape",,,,,,Buda,TX,78620,(512) 704-4034,,,,,,,,,,,,,,100,,,,Lot: 2 Block: FF Subdivision: BAUERLE RANCH,30.17098809,-97.83704915
2005-001001 BP,R- 435 Renovations/Remodel,Remodel,6805 Edgefield Dr,01/19/2005,Remodel Existing 2nd Flr Master Bathroom,Final,"Michael W. Albright, Albright Renovations, Inc",4801,Chadbury,Cove,,,Austin,TX,78727,(512) 502-1122,,,,,,,,,,,,,,6000,,1,,,30.35603906,-97.76557153
2005-001001 EP,R- 435 Renovations/Remodel,Remodel,6805 Edgefield Dr,01/19/2005,Remodel Existing 2nd Flr Master Bathroom,VOID,,,,,,,,,,,,,,,,,,,,,,,,6000,,1,,,30.35603906,-97.76557153
2005-001002 PP,Commercial,Remodel,3301 Red River St,01/19/2005,Comm. Pulled Meter,Final,"Danny Braun, D.B Welding & Plumbing Inc.",,,,,,Manchaca,TX,78652,(512) 585-1993,33 RIO ROJO LP,,,,,,AUSTIN,TX,78731 1152,,,,,1300,,,,Lot: 16 Block: Subdivision: HANCOCK PARK,30.2919996,-97.72590143
2005-001012 EP,Residential,Remodel,7203 Foxtree Cv,01/19/2005,Installing Solar Panel Only,Final,"Jose Ramirez, Carroll Electric Co",7006,Towering Oaks,Dr,,,Austin,TX,78745,(512) 632-7571,,,,,,,,,,,,,,800,,,,,30.38132167,-97.79494165
2005-001014 PP,Commercial,Remodel,410 W 18th St,01/19/2005,"Plbg. Bklts: 24110-24114,Bk#2-24115-24119,Bk#3-24120-24124,Bk#24125-24129",Final,"Gary Smalley, W.O Harper Plumbing",410,18th,St,,,Austin,TX,78701,(512) 476-2657,,,,,,,,,,,,,,,,,,,30.28099531,-97.74257507
2005-001016 BP,R- 435 Renovations/Remodel,Remodel,2108 Thornton Rd,01/19/2005,Convert Attic Space To 2nd Sty Office Space To Sf Residence,Final,"Jason Simons(Owner),",,,,,,,,,(512) 297-0569,,,,,,,,,,,,,,1500,,,,"Lot: 1 Block: 2 Subdivision: FREDERICKSBURG ROAD ACRES, RESUB OF REMAINING PORTIONS OF LOTS 21 & 22, BLK 2",30.24647503,-97.77015599
2005-001022 MP,Residential,Remodel,8503 Cima Oak Ln,01/19/2005,Change Out Hvac To Resid,VOID,"Roland Tey, Tey's Air Conditioning",11508,Oak,Trl,,,Austin,TX,78753,(512) 789-5342,,,,,,,,,,,,,,3000,,,,,30.37539537,-97.74719592
2005-001026 EP,Commercial,Remodel,11805 F M 2244 Rd,01/19/2005,New Elec Srv For New Construction Eud,Final,"Shayne Goodrum, Quantum Electric, Inc.",,,,,,Round Rock,TX,78680,(512) 246-1145,,,,,,,,,,,,,,20000,,,,Lot: 8 Block: Subdivision: RESUB OF LOTS 32 PHS I/ LOTS 28-31 PHS TWO THE UPLANDS,,
2005-001027 EP,Commercial,Remodel,11719 F M 2244 Rd,01/19/2005,New Elec Srv For New Construction (Eud),Final,"Shayne Goodrum, Quantum Electric, Inc.",,,,,,Round Rock,TX,78680,(512) 246-1145,,,,,,,,,,,,,,20000,,,,Lot: 9 Block: Subdivision: RESUB OF LOTS 32 PHS I/ LOTS 28-31 PHS TWO THE UPLANDS,,
2005-001031 EP,Residential,Remodel,1019 E Riverside Dr,01/19/2005,Upgrade/Repair Existing Electrical Srv For Security Lighting & Install Circuits For Washer & Dryer & Garage Area****See Comments***,Expired,"Elizabeth Steele(Owner),",,,,,,,,,,,,,,,,,,,,,,,5000,,,,,30.24894872,-97.73756714
2005-001033 BP,R- 435 Renovations/Remodel,Remodel,1618 Pennsylvania Ave,01/19/2005,Interior Rmdl To Existing Sf Residence To Remdl Bathroom,VOID,"Jose Bribiesca, J B Trucking",6919,MEADOR,AVE,,,AUSTIN,TX,78752,(512) 451-9625,,,,,,,,,,,,,,5250,,1,,Lot: 4 Block: Subdivision:,30.27172906,-97.72169355
2005-001033 EP,R- 435 Renovations/Remodel,Remodel,1618 Pennsylvania Ave,01/19/2005,Interior Rmdl To Existing Sf Residence To Remdl Bathroom,VOID,"Edwin Ramos(Owner),",,,,,,,,,,,,,,,,,,,,,,,5250,,1,,Lot: 4 Block: Subdivision:,30.27172906,-97.72169355
2005-001039 EP,Commercial,Remodel,8515 Brodie Ln,01/19/2005,"5 Temp Power Pole Ref# Bldg 1, Bldg 2, Bldg 3, Bldg 4, Bldg 5",Final,"William Crist, Houston-Stafford Electrical",,,,,,Stafford,TX,77477,(281) 498-2212,BASSHAM TRUST & DEBORAH E PARKER,,,,,,SAN DIEGO,CA,92128,,,,,250,,,,Lot: 3 Block: A Subdivision: W.W. BRODIE SUBDIVISION (WITHDRAWAL AND RESUBMITTAL OF C8-01-0086.0A),30.19863624,-97.8395312
2005-001040 EP,Commercial,Remodel,8515 Brodie Ln,01/19/2005,"5 Temp Power Poles Ref# Bldg 6, Bldg 7, Bldg 8, Bldg 9, Bldg 10",Final,"William Crist, Houston-Stafford Electrical",,,,,,Stafford,TX,77477,(281) 498-2212,BASSHAM TRUST & DEBORAH E PARKER,,,,,,SAN DIEGO,CA,92128,,,,,250,,,,Lot: 3 Block: A Subdivision: W.W. BRODIE SUBDIVISION (WITHDRAWAL AND RESUBMITTAL OF C8-01-0086.0A),30.19863624,-97.8395312
2005-001042 BP,R- 435 Renovations/Remodel,Remodel,407 Ridgewood Rd,01/19/2005,"Remodel Existing Residence, Drywall, Windows, Doors & Walls & Remodel Covered Rear Porch To Create Livingroom (No Electric Service Upgrades)",Final,KERR CONSTRUCTION GORUP LLC,,,,,,AUSTIN,TX,78734,(512) 848-6765,,,,,,,,,,,,,,10500,,,,Lot: 24 Block: Subdivision: RIDGEWOOD VILLAGE SEC 1,30.27984247,-97.78908823
2005-001042 MP,R- 435 Renovations/Remodel,Remodel,407 Ridgewood Rd,01/19/2005,"Remodel Existing Residence, Drywall, Windows, Doors & Walls & Remodel Covered Rear Porch To Create Livingroom (No Electric Service Upgrades)",Final,,,,,,,,,,,,,,,,,,,,,,,,10500,,,,Lot: 24 Block: Subdivision: RIDGEWOOD VILLAGE SEC 1,30.27984247,-97.78908823
2005-001043 EP,Commercial,Remodel,1801 W Wells Branch Pkwy,01/19/2005,Replace Exst Elec Srv To Exst Comm Bldg For Units 1901-1932 & Main Bldg Only Eud,Final,"Paul Brandt, Brandt Electrical Services, Inc.",,,,,,Katy,TX,77492-700,(281) 693-3383,,,,,,,,,,,,,,9000,,,,,30.43495506,-97.67559369
2005-001045 EP,Commercial,Remodel,8515 Brodie Ln,01/19/2005,"5 Temp Power Poles Ref#Bldg 11, Bldg 12, Bldg 13, Bldg 14, Bldg 15",Final,"William Crist, Houston-Stafford Electrical",,,,,,Stafford,TX,77477,(281) 498-2212,BASSHAM TRUST & DEBORAH E PARKER,,,,,,SAN DIEGO,CA,92128,,,,,250,,,,Lot: 3 Block: A Subdivision: W.W. BRODIE SUBDIVISION (WITHDRAWAL AND RESUBMITTAL OF C8-01-0086.0A),30.19863624,-97.8395312
2005-001047 EP,Commercial,Remodel,8515 Brodie Ln,01/19/2005,"5 Temp Power Poles Ref#Bldg 17, Bldg 18, Bldg 19, Bldg 21, Bldg 23",Final,"William Crist, Houston-Stafford Electrical",,,,,,Stafford,TX,77477,(281) 498-2212,BASSHAM TRUST & DEBORAH E PARKER,,,,,,SAN DIEGO,CA,92128,,,,,250,,,,Lot: 3 Block: A Subdivision: W.W. BRODIE SUBDIVISION (WITHDRAWAL AND RESUBMITTAL OF C8-01-0086.0A),30.19863624,-97.8395312
2005-001049 EP,Commercial,Remodel,8515 Brodie Ln,01/19/2005,"5 Temp Power Poles Ref# Clubhouse, Bldg 16, Bldg 20, Bldg 22, Bldg 24",Final,"William Crist, Houston-Stafford Electrical",,,,,,Stafford,TX,77477,(281) 498-2212,BASSHAM TRUST & DEBORAH E PARKER,,,,,,SAN DIEGO,CA,92128,,,,,250,,,,Lot: 3 Block: A Subdivision: W.W. BRODIE SUBDIVISION (WITHDRAWAL AND RESUBMITTAL OF C8-01-0086.0A),30.19863624,-97.8395312
2005-001052 EP,Residential,Remodel,2433 Village Walk,01/19/2005,Re-Attach Meter Can & Panel To Wall,Final,"Wesley Sunvison, Sunvison Electric",206,Bowman,Rd,Suite,A,Round Rock,TX,78664,(512) 238-0484,,,,,,,,,,,,,,250,,,,Lot: 82 Block: A Subdivision: VILLAGE SOUTH PHASE 1,30.19580804,-97.74728152
2005-001053 PP,Commercial,Remodel,505 Barton Springs Rd,01/19/2005,(8000 Water Park Rd. Wimberly Tx) 1 Irrigation Bkl#1 24130-24134,VOID,"Steven Romano, Emerald Forest Sprinklers",8701,Weiser,Dr,Unit,B,Austin,TX,78729,(512) 636-5515,CITY OF AUSTIN ATTN: REAL ESTATE SERVICES DIVISION,,,,,,AUSTIN,TX,78767 1088,,,,,,,,,Lot: 1 Block: Subdivision: TEXAS CENTER (AKA ONE TEXAS CENTER) [A RESUB OF RIVERVIEW TERR),30.25751174,-97.74919722
2005-001054 BP,Commercial,Remodel,101 W 5th St,01/19/2005,Finishout Plbg Refer# 04018588,Final,,,,,,,,,,,MB & MS ENTERPRISES INC,,,,,,AUSTIN,TX,78708 2653,,,,,,,,,Lot: 6 Block: Subdivision: OUTLOT 43 DIVISION E,30.26713768,-97.74369771
2005-001054 PP,Commercial,Remodel,101 W 5th St,01/19/2005,Finishout Plbg Refer# 04018588,Final,"Joshua Rodriguez, Johnny Rodriguez Plumbing",137,Alum Park Place,,,,Cedar Creek,TX,78612,(512) 636-3537,MB & MS ENTERPRISES INC,,,,,,AUSTIN,TX,78708 2653,,,,,,,,,Lot: 6 Block: Subdivision: OUTLOT 43 DIVISION E,30.26713768,-97.74369771
2005-001058 BP,R- 438 Residential Garage/Carport Addn,New,1180 Pandora St,01/19/2005,Detached Carport W/Att Storage To Exist Sf Residence,VOID,"Sun Mccolgin(Owner),",,,,,,,,,(512) 474-5229,MCCOLGIN SUN & RYAH CHRISTENSE RYAH CHRISTENSEN,1180,Pandora,ST,,,AUSTIN,TX,78702 2406,(512) 474-5229,,500,,5000,,1,,Lot: 10 Block: A Subdivision: HOMEWOOD HEIGHTS,30.27442448,-97.70595588
2005-001058 BP,R- 438 Residential Garage/Carport Addn,New,1180 Pandora St,01/19/2005,Detached Carport W/Att Storage To Exist Sf Residence,VOID,"Sun Mccolgin(Owner),",,,,,,,,,(512) 474-5229,MCCOLGIN SUN & RYAH CHRISTENSE RYAH CHRISTENSEN,,,,,,AUSTIN,TX,78702 2406,,,500,,5000,,1,,Lot: 10 Block: A Subdivision: HOMEWOOD HEIGHTS,30.27442448,-97.70595588
2005-001058 EP,R- 438 Residential Garage/Carport Addn,New,1180 Pandora St,01/19/2005,Detached Carport W/Att Storage To Exist Sf Residence,VOID,,,,,,,,,,,MCCOLGIN SUN & RYAH CHRISTENSE RYAH CHRISTENSEN,,,,,,AUSTIN,TX,78702 2406,,,500,,5000,,1,,Lot: 10 Block: A Subdivision: HOMEWOOD HEIGHTS,30.27442448,-97.70595588
2005-001058 EP,R- 438 Residential Garage/Carport Addn,New,1180 Pandora St,01/19/2005,Detached Carport W/Att Storage To Exist Sf Residence,VOID,,,,,,,,,,,MCCOLGIN SUN & RYAH CHRISTENSE RYAH CHRISTENSEN,1180,Pandora,ST,,,AUSTIN,TX,78702 2406,(512) 474-5229,,500,,5000,,1,,Lot: 10 Block: A Subdivision: HOMEWOOD HEIGHTS,30.27442448,-97.70595588
2005-001068 EP,Commercial,Remodel,1330 1/2 W 34th St,01/19/2005,Installing Temp. Elec Srv For Tunneling - Shoal Creek Tunnel,Expired,"Stephen Runyan,",1821,Central Commerce,CT,,,ROUND ROCK,TX,78664,(512) 339-1111,,,,,,,,,,,,,,2800,,,,Lot: Block: 5 Subdivision:,30.30468745,-97.74825929
2005-001070 EP,Residential,Remodel,9005 Currywood Dr,01/19/2005,Replacing Exst. Elec Srv Only,Final,"Stephen Runyan,",1821,Central Commerce,CT,,,ROUND ROCK,TX,78664,(512) 339-1111,,,,,,,,,,,,,,1500,,,,,30.38481571,-97.74776015
2005-001072 PP,Residential,Remodel,14629 Montoro Dr,01/19/2005,Repair Gas Leak To Exst Resid Eud,VOID,"Stephen Duggan, Sunergy",1907,Aster Pass,CIR,,,CEDAR PARK,TX,78613,(512) 584-1462,,,,,,,,,,,,,,300,,,,,30.447698,-97.68987005
2005-001073 EP,Residential,Remodel,3414 Clarksburg Dr,01/19/2005,Replace Hvac & Duct Work To Exst Resid,Expired,,,,,,,,,,,,,,,,,,,,,,,,4650,,,,Lot: 16 Block: D Subdivision:,30.20738676,-97.83327554
2005-001073 MP,Residential,Remodel,3414 Clarksburg Dr,01/19/2005,Replace Hvac & Duct Work To Exst Resid,Expired,"Thomas Strand, Strand Brothers, Inc.",1900,HOWARD,LN,Bldg,E,PFLUGERVILLE,TX,78660,(512) 834-8628,,,,,,,,,,,,,,4650,,,,Lot: 16 Block: D Subdivision:,30.20738676,-97.83327554
2005-001073 PP,Residential,Remodel,3414 Clarksburg Dr,01/19/2005,Replace Hvac & Duct Work To Exst Resid,Expired,,,,,,,,,,,,,,,,,,,,,,,,4650,,,,Lot: 16 Block: D Subdivision:,30.20738676,-97.83327554
2005-001074 EP,Residential,Remodel,3213 Crownover St,01/19/2005,New S/F Resid Elec Srv Only Eud,Final,"Ronnie Kruse,",2215,Investment,DR,,,Pflugerville,TX,78660,(512) 252-0040,,,,,,,,,,,,,,,,,,Lot: 15 Block: F Subdivision: AUSTIN'S COLONY PHASE IV,30.23010509,-97.58803603
2005-001075 EP,Residential,Remodel,3209 Crownover St,01/19/2005,New Sf Resid W/Att Garage Porch Elec Src Eud,Final,"Ronnie Kruse,",2215,Investment,DR,,,Pflugerville,TX,78660,(512) 252-0040,,,,,,,,,,,,,,,,,,Lot: 13 Block: F Subdivision: AUSTIN'S COLONY PHASE IV,30.2299076,-97.58816115
2005-001076 EP,Residential,Remodel,3128 Rippling Creek Ct,01/19/2005,New S/F Resid Elec Srv Only Eud,Final,"Ronnie Kruse,",2215,Investment,DR,,,Pflugerville,TX,78660,(512) 252-0040,,,,,,,,,,,,,,,,,,,30.37887671,-97.91046423
2005-001077 EP,Residential,Remodel,301 Jack Nicklaus Dr,01/19/2005,New 2stry Resid W/Att Garage Porch Elec Srv Eud,Final,"Daniel Hernandez, Dan Hernandez Electric LP",2303,RR 620,,Suite,135 #283,Lakeway,TX,78734,(512) 266-2338,,,,,,,,,,,,,,,,,,,30.33724596,-97.98059173
2005-001080 EP,Residential,Remodel,12801 Thomas St,01/19/2005,Homebuilder Loop Only(04018851),Final,"Larry Webb, Adobe Electric Inc",8104,Bounty,TRL,,,Austin,TX,78749,(512) 844-9704,,,,,,,,,,,,,,100,,,,,30.39349373,-97.88409413
2005-005300 BP,C-1000 Commercial Remodel,Remodel,3737 Executive Center Dr Unit 250,01/19/2005,Interior Remodel To Existing Admn/Bus Offices -,Final,"D.H. Allen, Inc.",8868,RESEARCH BLVD,BLVD,Suite,307,AUSTIN,TX,78758,(512) 342-1677,,,,,,,,,,,,,,24500,,,,,30.36279432,-97.75066183
2005-005455 BP,R- 101 Single Family Houses,New,12837 Buenos Aires Pkwy,01/19/2005,"New Sf Residence W/ Attached Garage, Cov'D Porch, Uncov'D Patio @ Grade (Smart Housing)",Final,Centex Homes,12301 B,Riata Trace Pkwy,,Bldg,2,Austin,TX,78727,(512) 795-0170,,,,,,,,,,,,,,86000,,1,,Lot: 10 Block: P Subdivision: LOS CIELOS SEC 1,30.16738391,-97.62261298
2005-005455 DS,Res. Driveway & Sidewalk,New,12837 Buenos Aires Pkwy,01/19/2005,"New Sf Residence W/ Attached Garage, Cov'D Porch, Uncov'D Patio @ Grade (Smart Housing)",Final,Lopez Construction,6006,Idlewood,Cove,,,Austin,TX,78745,(512) 748-9531,,,,,,,,,,,,,,86000,,,,Lot: 10 Block: P Subdivision: LOS CIELOS SEC 1,30.16738391,-97.62261298
2005-005667 BP,R- 101 Single Family Houses,New,12508 Campana Dr,01/19/2005,"New Sf Residence W/ Attached Garage, Cov'D Porch, Uncov'D Patio @ Grade (Smart Housing)",Final,Centex Homes,12301 B,Riata Trace Pkwy,,Bldg,2,Austin,TX,78727,(512) 795-0170,,,,,,,,,,,,,,93000,,1,,Lot: 28 Block: B Subdivision: LOS CIELOS SEC 1,30.16934891,-97.62736757
2005-005667 DS,Res. Driveway & Sidewalk,New,12508 Campana Dr,01/19/2005,"New Sf Residence W/ Attached Garage, Cov'D Porch, Uncov'D Patio @ Grade (Smart Housing)",Final,Lopez Construction,6006,Idlewood,Cove,,,Austin,TX,78745,(512) 748-9531,,,,,,,,,,,,,,93000,,,,Lot: 28 Block: B Subdivision: LOS CIELOS SEC 1,30.16934891,-97.62736757
2005-005958 EP,R- 101 Single Family Houses,New,12105 Windy Ridge Rd,01/19/2005,"New Three Story Res W/Att Garage, Porch & Uncovered Patio",VOID,"Russell Jones, Russell Jones Electric",3378,FM 1478,,,,LAMPASAS,TX,76550,(512) 556-8702,,,,,,,,,,,,5012,,373500,,1,,,30.44799085,-97.83678389
2005-009942 EP,C- 327 Stores & Customer Services,New,901 Little Texas Ln Bldg C,01/19/2005,New Restaurant W/Attached Canopy ( Smokey Bones Barbeque & Grill),Final,"Gregory Mallory, Bee Cave Electric",,,,,,Austin,TX,78734,(512) 402-9144,,,,,,,,,,,,,,1200000,,,,LOT 1 BLK B STASSNEY HEIGHTS SOUTH SEC 2,30.19785074,-97.76925976
2005-010437 MP,R- 435 Renovations/Remodel,Remodel,2109 E Cesar Chavez St,01/19/2005,Interior Remdl To Existing Sf Residence,Final,"Isaac Aros, Aros Htg. & Air",2215,Holly,St,,,Austin,TX,78702,(512) 698-2665,PALACIOS ARTURO,,,,,,HOUSTON,TX,77004-4052,,,,,12000,,1,,Lot: 6 Block: O Subdivision: DRIVING PARK ADDN 1910,30.25589996,-97.72168315
2005-010437 MP,R- 435 Renovations/Remodel,Remodel,2109 E Cesar Chavez St,01/19/2005,Interior Remdl To Existing Sf Residence,Final,"Isaac Aros, Aros Htg. & Air",2215,Holly,St,,,Austin,TX,78702,(512) 698-2665,PALACIOS ARTURO,,,,,,HOUSTON,TX,77004 4052,,,,,12000,,1,,Lot: 6 Block: O Subdivision: DRIVING PARK ADDN 1910,30.25589996,-97.72168315
2005-011107 BP,R- 435 Renovations/Remodel,Remodel,4715 Highland Ter,01/19/2005,"Enclose Garage For Bdrm, Enlarge Kitchen & Finish Out 2nd Flr Storage Area For A Media Rm & Replace Exist Foundation To Rebuild Patios/Stoop",Final,"Jose Bribiesca, J B Trucking",6919,MEADOR,AVE,,,AUSTIN,TX,78752,(512) 451-9625,,,,,,,,,,,,,,42000,,1,,,30.32784308,-97.75641259
2005-015279 BP,R- 434 Addition & Alterations,Addition,2507 Wilson St,01/19/2005,Addn To Existing Sf Residence To Add 2nd Sty For Bdrms-1bath Hvac Elect Rmdl Insulate Drywal Flooring Kitchen Hvac And Siding,Final,Steve Pruyne Builder,507,Hurst Creek,,,,Lakeway,TX,78734,(512) 261-9223,,,,,,,,,,,,,,59600,,,,LOT 9 FOREST WOOD,30.23855997,-97.75810687
2005-018485 BP,C- 327 Stores & Customer Services,New,6000 W William Cannon Dr Bldg B,01/19/2005,New Shell Building #2,Final,"Rizzo Construction, Inc.",1715,Capital Of Tx Hwy,,Suite,101,Austin,TX,78746-0,(512) 328-4690,,,,,,,,,,,,,,250000,,,,LOT 5A BLK A HIGH MESA PLAZA SEC II RESUB OF LOT 5 BLK A OF THE RESUB OF LOT 3A BLK A OF THE AMENDED PLAT OF LTS 2&3 BLK 1,30.22905239,-97.86228612
2005-018501 BP,C-1000 Commercial Remodel,Remodel,3737 Executive Center Dr,01/19/2005,Interior Remodel To Existing Admn/Bus Offices -,Final,"D.H. Allen, Inc.",8868,RESEARCH BLVD,BLVD,Suite,307,AUSTIN,TX,78758,(512) 342-1677,,,,,,,,,,,,,,35000,,,,,30.36279432,-97.75066183
2005-018503 EP,Sign Permit,,12401 Research Blvd,01/19/2005,"Wall Sign ""Cybertrader"" Reverse Channel Letters W/Logo South Elev",Final,"Stephen Runyan,",1821,Central Commerce,CT,,,ROUND ROCK,TX,78664,(512) 339-1111,,,,,,,,,,,,,,,,,,,,
2005-022313 BP,C- 327 Stores & Customer Services,New,8400 Brodie Ln,01/19/2005,New Shell Retail/Office Building,Final,"Laborde Contractors, Inc.",,,,,,Austin,TX,78764,(512) 445-3332,CALSTONE PARTNERS LTD,,,,,,AUSTIN,TX,78745 8160,,,,,525000,,,,Lot: 1 Block: A Subdivision: BRODIE LANE-CALTEX SUBDIVISION,30.20043625,-97.8394765
2005-022313 DS,Com. Driveway & Sidewalk,New,8400 Brodie Ln,01/19/2005,New Shell Retail/Office Building,Final,Briggs Construction,1905,CREEK CREST,WAY,,,ROUND ROCK,TX,78664,(512) 695-1264,CALSTONE PARTNERS LTD,,,,,,AUSTIN,TX,78745 8160,,,,,525000,,,,Lot: 1 Block: A Subdivision: BRODIE LANE-CALTEX SUBDIVISION,30.20043625,-97.8394765
2005-022327 PP,C- 328 Commercial Other Nonresident Bldg,New,13553 N Us Hwy 183,01/19/2005,New Single Bay Drive Thru Automatic Carwash**Expired No Activity**,Final,"Marion Shipman, M & R Plumbing",,,,,,Cedar Park,TX,78630,(512) 258-4161,MCDAVID AUSTIN-ACRA LLC,,,,,,DULUTH,GA,30097 5240,,,,,49000,,,,,,
2005-022339 BP,R- 101 Single Family Houses,New,14030 Lampting Dr,01/19/2005,"New Sf Residence W/ Attached Garage, Cov'D Porch",Final,"Mehradad Bashiri,",1401,Tamar,Ln,,,Austin,TX,78727,,,,,,,,,,,,,,,50000,,1,,,30.41964058,-97.65192289
2005-022339 DS,Res. Driveway & Sidewalk,New,14030 Lampting Dr,01/19/2005,"New Sf Residence W/ Attached Garage, Cov'D Porch",Final,"Robert & Emily Lee, Lee Construction",10303,Golden Meadow,Dr,Suite,E,Austin,TX,78758,(512) 835-4890,,,,,,,,,,,,,,50000,,,,,30.41964058,-97.65192289
2005-022365 BP,C-1000 Commercial Remodel,Remodel,5341 Cameron Rd Unit 300,01/19/2005,Change Of Use And Interior Remodel From Auto Repair To Restaurant (1700sf) And Indoor Recreation/Retail (700sf)(Paletera),Final,"Javier Fuentes, Forta Colonial",,,,,,,,,(512) 462-3100,,,,,,,,,,,,,,48000,,,,Lot: 1-B Block: Subdivision: HELEN & MARY SUBDIVISION,30.31160774,-97.70645607
2005-022374 BP,C-1000 Commercial Remodel,Remodel,3737 Executive Center Dr Unit 261,01/19/2005,Interior Remodel To Existing Admn/Bus Offices -,Final,"D.H. Allen, Inc.",8868,RESEARCH BLVD,BLVD,Suite,307,AUSTIN,TX,78758,(512) 342-1677,,,,,,,,,,,,,,13200,,,,,30.36279432,-97.75066183
2005-022375 BP,C-1000 Commercial Remodel,Remodel,3737 Executive Center Dr Unit 268,01/19/2005,Interior Remodel To Existing Admn/Bus Offices -,Final,"D.H. Allen, Inc.",8868,RESEARCH BLVD,BLVD,Suite,307,AUSTIN,TX,78758,(512) 342-1677,,,,,,,,,,,,,,35300,,,,,30.36279432,-97.75066183
2005-022391 EP,C-1000 Commercial Remodel,Remodel,5918 West Courtyard Dr,01/19/2005,Interior Remodel To Existing Administrative Office,Final,"Dale Wleczyk, D.R.W. Electric L.L.C.",,,,,,Austin,TX,78734,(512) 217-1807,,,,,,,,,,,,,,260000,,,,LOT 1 HIDDEN VALLEY PHS A,30.35340395,-97.79694812
2005-022400 PP,R- 101 Single Family Houses,New,10104 D-K Ranch Rd,01/19/2005,New 2 Sty Sf Residence W.Att Garage Cvd Porch-Patio,Final,"Robert Christianson,",1950,Louis Henna,BLVD,,,Round Rock,TX,78664,(512) 246-5200,SCHALLENBERG LOUIS E & LISA A,,,,,,AUSTIN,TX,78759 6401,,,,,360000,,1,,,,
2005-022408 PP,C-1000 Commercial Remodel,Remodel,1301 W 38th St Unit 502,01/19/2005,Tenant Finish Out To Create Medical Office( Cardio Rehabilitation Clinic),Final,"Frank Poos, Central City Turnkey",1200,Peachtree Valley,,,,Round Rock,TX,78681,(512) 218-1128,,,,,,,,,,,,,,24000,,,,Lot: Block: 5 Subdivision:,30.30560444,-97.74652809
2005-022409 EP,C-1000 Commercial Remodel,Remodel,1300 Park Center Dr,01/19/2005,Interior Remodel To Create Administrative Offices For Data Center,Final,"Robert Schmidt, Schmidt Electric Co Inc.(Main)",9701,Fm 1625,,,,Austin,TX,78747,(512) 243-1450,HOME DEPOT USA INC,,,,,,ATLANTA,GA,30339 1834,,,,,47000,,,,,30.34056193,-97.68514604
2005-022410 EP,C-1000 Commercial Remodel,Remodel,1300 PARK CENTER DR,01/19/2005,Interior Remodel To Create Kitchen/Dining Area,Final,"Robert Schmidt, Schmidt Electric Co Inc.(Main)",9701,Fm 1625,,,,Austin,TX,78747,(512) 243-1450,HOME DEPOT USA INC,,,,,,ATLANTA,GA,30339 1834,,,,,290000,,,,,,
2005-022413 EP,C-1000 Commercial Remodel,Remodel,12012 Technology Blvd Unit 200,01/19/2005,Remodel To Existing Administrative/Business Office,Final,"Tracy Williams, W2 Electric",12011,Dove Haven,,,,Austin,TX,78753,(512) 905-4398,,,,,,,,,,,,,,161850,,,,,30.43138768,-97.76175521
2005-022422 PP,C-1000 Commercial Remodel,Remodel,313 1/2 E 6th St,01/19/2005,Change Of Use And Remodel From Cocktail Lounge To Retail (New Core),Final,"Lanier Fowler, Fowler'S Plumbing Repairs",8704,Dorman,Cove,,,Ausitn,TX,78717,(512) 990-3760,,,,,,,,,,,,,,2898,,,,,30.26714562,-97.73985034
2005-022435 MP,C-1000 Commercial Remodel,Remodel,807 Las Cimas Pkwy Bldg 2 Unit 150,01/19/2005,Interior Remodel Of Existing Admn/Bus Offices - W.R. Starkey,Final,"Stanley Henry, Team Services",2330,Patterson Industrial,,,,PFLUGERVILLE,TX,78660,(512) 994-3000,,,,,,,,,,,,,,170609,,,,LOT 1A BLK A LAS CIMAS OFFICE PARK AMENDED PLAT OF BLK A OF,30.2887704,-97.82994145
2005-054901 DS,,,SUEP Permit #050119143,01/19/2005,MAPSCO # 524W DEMO AND REPLACE EXISTING DRIVEWAY APPROACH,Final,Advanced Surfacing,4813,Belvedere St.,,,,Austin,TX,,(512) 833-8000,,,,,,,,,,,,,,,,,,,,
